"id","name","country_id","state_id","zone_id","latitude","longitude","created_at","updated_at"
"1","Andkhvoy","2","8","3","36.931659","65.101494",NULL,NULL
"2","Asadabad","2","19","0","34.866000","71.150005",NULL,NULL
"3","Aybak","2","28","0","36.261000","68.040001",NULL,NULL
"4","Baghlan","2","6","3","36.139330","68.699259",NULL,NULL
"5","Balkh","2","2","3","36.750120","66.899730",NULL,NULL
"6","Bamian","2","3","0","34.821064","67.521036",NULL,NULL
"7","Baraki Barak","2","21","3","33.966702","68.966704",NULL,NULL
"8","Chaghcharan","2","10","0","34.516701","65.250001",NULL,NULL
"9","Charikar","2","25","3","35.018262","69.167912",NULL,NULL
"10","Farah","2","7","3","32.391730","62.096819",NULL,NULL
"11","Feyzabad","2","5","3","37.129761","70.579247",NULL,NULL
"12","Gardiz","2","27","3","33.600054","69.214628",NULL,NULL
"13","Ghazni","2","9","3","33.563312","68.417829",NULL,NULL
"14","Herat","2","12","3","34.330009","62.169993",NULL,NULL
"15","Jalalabad","2","22","3","34.441527","70.436103",NULL,NULL
"16","Kabul","2","14","3","34.516690","69.183260",NULL,NULL
"17","Kandahar","2","15","3","31.610020","65.694946",NULL,NULL
"18","Karokh","2","12","3","34.486770","62.591776",NULL,NULL
"19","Kondoz","2","17","3","36.727951","68.872530",NULL,NULL
"20","Lashkar Gah","2","11","0","31.582998","64.360000",NULL,NULL
"21","Mahmud-E Eraqi","2","16","0","35.016696","69.333301",NULL,NULL
"22","Mayda Shahr","2","32","0","34.450002","68.799997",NULL,NULL
"23","Mazar-e Sharif","2","2","3","36.699994","67.100028",NULL,NULL
"24","Mehtar Lam","2","20","3","34.650000","70.166701",NULL,NULL
"25","Meymaneh","2","8","0","35.930222","64.770093",NULL,NULL
"26","Pol-e Khomri","2","6","3","35.951073","68.701119",NULL,NULL
"27","Qala i Naw","2","4","0","34.983000","63.133300",NULL,NULL
"28","Qalat","2","33","3","32.112263","66.886759",NULL,NULL
"29","Sheberghan","2","13","3","36.657981","65.738302",NULL,NULL
"30","Taloqan","2","30","3","36.729999","69.540004",NULL,NULL
"31","Zaranj","2","23","0","31.112001","61.886998",NULL,NULL
"32","Zareh Sharan","2","26","3","32.850000","68.416705",NULL,NULL
"33","Ambriz","3","34","0","-7.854987","13.125028",NULL,NULL
"34","Benguela","3","35","8","-12.578265","13.407233",NULL,NULL
"35","Cabinda","3","37","8","-5.559623","12.189995",NULL,NULL
"36","Cacolo","3","45","0","-10.149627","19.260002",NULL,NULL
"37","Calulo","3","41","0","-9.999611","14.900010",NULL,NULL
"38","Camabatela","3","40","8","-8.189592","15.370007",NULL,NULL
"39","Cangamba","3","48","0","-13.699591","19.860017",NULL,NULL
"40","Capenda-Camulemba","3","44","0","-9.419594","18.430027",NULL,NULL
"41","Caxito","3","34","8","-8.579542","13.659982",NULL,NULL
"42","Cazombo","3","48","0","-11.889573","22.900039",NULL,NULL
"43","Chitado","3","39","0","-17.319629","13.920018",NULL,NULL
"44","Cubal","3","35","0","-13.039580","14.239999",NULL,NULL
"45","Cuito Caunavale","3","38","0","-15.159606","19.169982",NULL,NULL
"46","Dondo","3","40","0","-9.690017","14.430013",NULL,NULL
"47","Dundo","3","44","0","-7.380029","20.829984",NULL,NULL
"48","Huambo","3","42","8","-12.749985","15.760009",NULL,NULL
"49","Lobito","3","35","8","-12.370009","13.541230",NULL,NULL
"50","Luanda","3","46","8","-8.838286","13.234427",NULL,NULL
"51","Luau","3","48","8","-10.709541","22.230002",NULL,NULL
"52","Lucapa","3","44","8","-8.419604","20.740015",NULL,NULL
"53","Luena","3","48","8","-11.790044","19.900015",NULL,NULL
"54","Luiana","3","38","0","-17.369548","22.999981",NULL,NULL
"55","Lumbala Nguimbo","3","48","0","-14.099619","21.440024",NULL,NULL
"56","Malanje","3","47","8","-9.540000","16.340026",NULL,NULL
"57","Mavinga","3","38","0","-15.789541","20.360039",NULL,NULL
"58","Mbanza-Congo","3","51","8","-6.269606","14.239999",NULL,NULL
"59","Menongue","3","38","8","-14.666613","17.699994",NULL,NULL
"60","Muconda","3","45","0","-10.599626","21.319980",NULL,NULL
"61","Mucusso","3","38","0","-18.019534","21.429999",NULL,NULL
"62","Namibe","3","49","8","-15.190043","12.160022",NULL,NULL
"63","Ndalatando","3","40","8","-9.299550","14.909984",NULL,NULL
"64","Nzeto","3","51","8","-7.229599","12.860031",NULL,NULL
"65","Ondjiva","3","39","8","-17.069618","15.730037",NULL,NULL
"66","Quibala","3","41","8","-10.729592","14.979954",NULL,NULL
"67","Saurimo","3","45","8","-9.659580","20.390011",NULL,NULL
"68","Soyo","3","51","8","-6.129614","12.369984",NULL,NULL
"69","Sumbe","3","41","8","-11.210028","13.849997",NULL,NULL
"70","Tombua","3","49","0","-15.800032","11.859989",NULL,NULL
"71","Waku Kungo","3","41","8","-11.359528","15.119997",NULL,NULL
"72","Xangongo","3","39","0","-16.740026","14.969980",NULL,NULL
"73","Berat","6","83","6","40.709997","19.972000",NULL,NULL
"74","Corovode","6","83","6","40.516704","20.233297",NULL,NULL
"75","Elbasan","6","86","6","41.121507","20.083828",NULL,NULL
"76","Fier","6","79","6","40.730004","19.573003",NULL,NULL
"77","Gramsh","6","86","6","40.866696","20.199997",NULL,NULL
"78","Librazhd","6","86","6","41.200002","20.366704",NULL,NULL
"79","Lushnje","6","79","6","40.940001","19.716003",NULL,NULL
"80","Pogradec","6","80","0","40.899996","20.664001",NULL,NULL
"81","Abu Dhabi","8","98","2","24.466684","54.366593",NULL,NULL
"82","Al Ayn","8","98","2","24.230471","55.739998",NULL,NULL
"83","Al Fujayrah","8","100","2","25.123439","56.337481",NULL,NULL
"84","Dubai","8","99","2","25.229996","55.279974",NULL,NULL
"85","Jabal Ali","8","99","0","24.976239","55.010740",NULL,NULL
"86","Ras al Khaymah","8","101","2","25.791538","55.942776",NULL,NULL
"87","Sharjah","8","102","2","25.371383","55.406478",NULL,NULL
"88","Umm al Qaywayn","8","103","2","25.565273","55.553343",NULL,NULL
"89","28 de Noviembre","9","129","0","-51.650040","-72.300016",NULL,NULL
"90","Abra Pampa","9","128","0","-22.716664","-65.699980",NULL,NULL
"91","Alto Rio Sanguer","9","124","0","-45.033286","-70.833284",NULL,NULL
"92","Anatuya","9","112","0","-28.466132","-62.833307",NULL,NULL
"93","Azul","9","108","19","-36.779630","-59.870000",NULL,NULL
"94","Bahia Blanca","9","108","19","-38.740027","-62.265021",NULL,NULL
"95","Balcarce","9","108","0","-37.833312","-58.249995",NULL,NULL
"96","Belen","9","115","0","-27.649593","-67.033283",NULL,NULL
"97","Buenos Aires","9","108","19","-34.602502","-58.397531",NULL,NULL
"98","Cafayate","9","106","21","-26.082918","-65.966604",NULL,NULL
"99","Campana","9","108","19","-34.159996","-58.959978",NULL,NULL
"100","Carhue","9","108","0","-37.182861","-62.733313",NULL,NULL
"101","Catamarca","9","115","24","-28.470008","-65.780001",NULL,NULL
"102","Cerrillos","9","106","0","-24.899631","-65.483300",NULL,NULL
"103","Chacabuco","9","108","19","-34.650044","-60.489988",NULL,NULL
"104","Chamical","9","111","0","-30.349583","-66.316660",NULL,NULL
"105","Charata","9","113","0","-27.216286","-61.199996",NULL,NULL
"106","Chascomus","9","108","0","-35.566215","-58.016624",NULL,NULL
"107","Chepes","9","111","0","-31.349987","-66.599951",NULL,NULL
"108","Chilecito","9","111","0","-29.165521","-67.499999",NULL,NULL
"109","Chivilcoy","9","108","19","-34.899951","-60.039989",NULL,NULL
"110","Chumbicha","9","115","0","-28.866624","-66.233306",NULL,NULL
"111","Comandante Fontana","9","119","0","-25.333300","-59.683319",NULL,NULL
"112","Comodoro Rivadavia","9","124","24","-45.870031","-67.499999",NULL,NULL
"113","Comondante Luis Piedrabuena","9","129","0","-49.974549","-68.903473",NULL,NULL
"114","Coronel Suarez","9","108","19","-37.466616","-61.916619",NULL,NULL
"115","Corrientes","9","126","20","-27.489964","-58.809987",NULL,NULL
"116","Darregueira","9","108","0","-37.699574","-63.166594",NULL,NULL
"117","Doctor Pedro P. Pena","9","119","0","-22.479986","-62.299981",NULL,NULL
"118","Dolores","9","108","19","-36.330045","-57.689978",NULL,NULL
"119","El Calafate","9","129","29","-50.333324","-72.300016",NULL,NULL
"120","El Maiten","9","124","0","-42.050006","-71.166623",NULL,NULL
"121","Eldorado","9","118","0","-26.200017","-54.599985",NULL,NULL
"122","Esquel","9","124","0","-42.900031","-71.316614",NULL,NULL
"123","Formosa","9","119","20","-26.172835","-58.182816",NULL,NULL
"124","Frias","9","112","0","-28.649583","-65.149987",NULL,NULL
"125","Gastre","9","124","0","-42.282963","-69.233304",NULL,NULL
"126","General Guemes","9","106","0","-24.666622","-65.049968",NULL,NULL
"127","General Pico","9","116","21","-35.659595","-63.770020",NULL,NULL
"128","Gobernador Gregores","9","129","0","-48.766598","-70.250012",NULL,NULL
"129","Goya","9","126","20","-29.139993","-59.269985",NULL,NULL
"130","Humahuaca","9","128","0","-23.199993","-65.349949",NULL,NULL
"131","Ingeniero Guillermo N. Juarez","9","119","0","-23.900002","-61.849982",NULL,NULL
"132","Joaquin V. Gonzalez","9","106","0","-25.083341","-64.183354",NULL,NULL
"133","Juan Jose Castelli","9","113","0","-25.949541","-60.616647",NULL,NULL
"134","Juarez","9","108","0","-37.665519","-59.800030",NULL,NULL
"135","Junin","9","108","19","-34.584570","-60.958874",NULL,NULL
"136","La Paz","9","117","0","-33.466137","-67.549996",NULL,NULL
"137","La Plata","9","108","19","-34.909615","-57.959961",NULL,NULL
"138","La Rioja","9","111","25","-29.409950","-66.849961",NULL,NULL
"139","Las Heras","9","117","0","-32.825039","-68.801677",NULL,NULL
"140","Las Lomitas","9","119","0","-24.699592","-60.600007",NULL,NULL
"141","Las Plumas","9","124","0","-43.416279","-67.249988",NULL,NULL
"142","Libertador General San Martin","9","128","22","-23.819542","-64.789984",NULL,NULL
"143","Lincoln","9","108","19","-34.880004","-61.539949",NULL,NULL
"144","Lobos","9","108","0","-35.184895","-59.094672",NULL,NULL
"145","Los Blancos","9","106","0","-23.599607","-62.600040",NULL,NULL
"146","Lujan","9","108","19","-34.579609","-59.109994",NULL,NULL
"147","Malargue","9","117","0","-35.466118","-69.583309",NULL,NULL
"148","Mar de Ajo","9","108","0","-36.716223","-56.676603",NULL,NULL
"149","Mar del Plata","9","108","19","-38.000020","-57.579984",NULL,NULL
"150","Mendoza","9","117","27","-32.883330","-68.816611",NULL,NULL
"151","Mercedes","9","126","20","-29.179577","-58.079980",NULL,NULL
"152","Monte Quemado","9","112","0","-25.799628","-62.866587",NULL,NULL
"153","Necochea","9","108","19","-38.559986","-58.749990",NULL,NULL
"154","Nueve de Julio","9","108","19","-35.445964","-60.889989",NULL,NULL
"155","Olavarria","9","108","19","-36.900036","-60.329997",NULL,NULL
"156","Pampa del Infierno","9","113","0","-26.516587","-61.166587",NULL,NULL
"157","Paso Rio Mayo","9","124","0","-45.683376","-70.266574",NULL,NULL
"158","Pedro Luro","9","108","0","-39.483341","-62.683316",NULL,NULL
"159","Pergamino","9","108","19","-33.899599","-60.569983",NULL,NULL
"160","Perito Moreno","9","129","0","-46.600012","-70.933355",NULL,NULL
"161","Posadas","9","118","20","-27.357832","-55.885107",NULL,NULL
"162","Presidencia Roque Saenz Pena","9","113","20","-26.790007","-60.450016",NULL,NULL
"163","Puerto Deseado","9","129","0","-47.750020","-65.899967",NULL,NULL
"164","Puerto Madryn","9","124","24","-42.770013","-65.040020",NULL,NULL
"165","Puerto San Julian","9","129","0","-49.300002","-67.716652",NULL,NULL
"166","Punta Alta","9","108","19","-38.879967","-62.079968",NULL,NULL
"167","Rafaela","9","122","20","-31.250045","-61.499978",NULL,NULL
"168","Rawson","9","124","24","-43.300007","-65.099990",NULL,NULL
"169","Reconquista","9","122","20","-29.139528","-59.650013",NULL,NULL
"170","Resistencia","9","113","20","-27.459992","-58.990028",NULL,NULL
"171","Rinconada","9","128","0","-22.432909","-66.166592",NULL,NULL
"172","Rio Colorado","9","116","0","-38.966576","-64.083283",NULL,NULL
"173","Rio Gallegos","9","129","29","-51.633297","-69.216587",NULL,NULL
"174","Rio Grande","9","125","0","-53.791446","-67.698995",NULL,NULL
"175","Rodeo","9","114","0","-30.215586","-69.139951",NULL,NULL
"176","Rosario","9","122","20","-32.951130","-60.666308",NULL,NULL
"177","Salta","9","106","21","-24.783359","-65.416638",NULL,NULL
"178","San Antonio de los Cobres","9","106","21","-24.182931","-66.350018",NULL,NULL
"179","San Juan","9","114","26","-31.550026","-68.519988",NULL,NULL
"180","San Justo","9","122","0","-30.782890","-60.583289",NULL,NULL
"181","San Lorenzo","9","126","20","-28.120003","-58.769989",NULL,NULL
"182","San Luis","9","109","28","-33.299997","-66.350018",NULL,NULL
"183","San Martin","9","117","27","-33.069985","-68.490016",NULL,NULL
"184","San Nicolas","9","108","19","-33.330021","-60.240003",NULL,NULL
"185","San Pedro","9","128","22","-24.219621","-64.870005",NULL,NULL
"186","San Rafael","9","117","27","-34.600021","-68.333333",NULL,NULL
"187","San Ramon de la Nueva Oran","9","106","21","-23.139997","-64.320012",NULL,NULL
"188","San Salvador de Jujuy","9","128","22","-24.183344","-65.300030",NULL,NULL
"189","Santa Fe","9","122","20","-31.623872","-60.690001",NULL,NULL
"190","Santa Rosa","9","116","21","-36.620001","-64.299988",NULL,NULL
"191","Santiago del Estero","9","112","20","-27.783331","-64.266656",NULL,NULL
"192","Sarmiento","9","124","0","-45.600022","-69.083313",NULL,NULL
"193","Sunchales","9","122","0","-30.932906","-61.566614",NULL,NULL
"194","Susques","9","128","0","-23.416673","-66.483317",NULL,NULL
"195","Tandil","9","108","19","-37.320010","-59.150044",NULL,NULL
"196","Tartagal","9","106","21","-22.550007","-63.810018",NULL,NULL
"197","Telsen","9","124","0","-42.399597","-66.950007",NULL,NULL
"198","Tinogasta","9","115","0","-28.066621","-67.566584",NULL,NULL
"199","Trelew","9","124","24","-43.250036","-65.329951",NULL,NULL
"200","Tres Arroyos","9","108","19","-38.369972","-60.269949",NULL,NULL
"201","Tunuyan","9","117","0","-33.566182","-69.016676",NULL,NULL
"202","Ushuaia","9","125","30","-54.790003","-68.310001",NULL,NULL
"203","Uspallata","9","117","0","-32.593115","-69.345985",NULL,NULL
"204","Veinticinco de Mayo","9","108","19","-35.429996","-60.179981",NULL,NULL
"205","Venado Tuerto","9","122","20","-33.749582","-61.970001",NULL,NULL
"206","Vera","9","122","0","-29.466174","-60.216593",NULL,NULL
"207","Victorica","9","116","0","-36.216253","-65.450021",NULL,NULL
"208","Viedma","9","108","19","-40.799953","-63.000015",NULL,NULL
"209","Villa Angela","9","113","0","-27.583292","-60.716666",NULL,NULL
"210","Villa Constitucion","9","122","20","-33.230027","-60.350022",NULL,NULL
"211","Villalonga","9","108","0","-39.882851","-62.583322",NULL,NULL
"212","Yacuiba","9","106","61","-22.030039","-63.699998",NULL,NULL
"213","Zarate","9","108","19","-34.089561","-59.040024",NULL,NULL
"214","Artashat","10","131","7","39.953889","44.550556",NULL,NULL
"215","Ashtarak","10","130","7","40.301667","44.359167",NULL,NULL
"216","Gavarr","10","134","7","40.358889","45.126667",NULL,NULL
"217","Gyumri","10","137","7","40.789434","43.847494",NULL,NULL
"218","Ijevan","10","139","7","40.875556","45.149167",NULL,NULL
"219","Vanadzor","10","136","7","40.812766","44.488282",NULL,NULL
"220","Yeghegnadzor","10","140","7","39.761111","45.333333",NULL,NULL
"221","Yerevan","10","133","7","40.181151","44.513551",NULL,NULL
"222","Adelaide","15","164","42","-34.934988","138.600005",NULL,NULL
"223","Adelaide River","15","162","0","-13.249541","131.099998",NULL,NULL
"224","Albany","15","167","44","-35.016947","117.891605",NULL,NULL
"225","Albury","15","161","38","-36.060035","146.920014",NULL,NULL
"226","Alice Springs","15","162","43","-23.700996","133.880035",NULL,NULL
"227","Andamooka","15","164","0","-30.430973","137.165570",NULL,NULL
"228","Ararat","15","166","37","-37.279548","142.909974",NULL,NULL
"229","Armidale","15","161","38","-30.512312","151.667476",NULL,NULL
"230","Atherton","15","163","40","-17.270278","145.469353",NULL,NULL
"231","Ayr","15","163","40","-19.570241","147.399468",NULL,NULL
"232","Bairnsdale","15","166","37","-37.829591","147.609998",NULL,NULL
"233","Ballarat","15","166","37","-37.559582","143.840047",NULL,NULL
"234","Ballina","15","161","38","-28.861353","153.567980",NULL,NULL
"235","Barcaldine","15","163","0","-23.566173","145.283370",NULL,NULL
"236","Batemans Bay","15","161","38","-35.689619","150.207307",NULL,NULL
"237","Bathurst","15","161","0","-33.419628","149.570033",NULL,NULL
"238","Bedourie","15","163","0","-24.349587","139.466619",NULL,NULL
"239","Bendigo","15","166","37","-36.759993","144.280020",NULL,NULL
"240","Berri","15","164","42","-34.282935","140.600038",NULL,NULL
"241","Bicheno","15","165","0","-41.878388","148.288612",NULL,NULL
"242","Biloela","15","163","40","-24.393564","150.496075",NULL,NULL
"243","Birdsville","15","163","0","-25.899622","139.366625",NULL,NULL
"244","Bongaree","15","163","40","-27.078723","153.150900",NULL,NULL
"245","Bordertown","15","164","42","-36.316195","140.766643",NULL,NULL
"246","Boulia","15","163","0","-22.899598","139.900029",NULL,NULL
"247","Bourke","15","161","38","-30.100000","145.933333",NULL,NULL
"248","Bowen","15","163","40","-20.001326","148.208669",NULL,NULL
"249","Brisbane","15","163","40","-27.455031","153.035093",NULL,NULL
"250","Broken Hill","15","161","39","-31.949950","141.433114",NULL,NULL
"251","Broome","15","167","44","-17.961771","122.230768",NULL,NULL
"252","Bunbury","15","167","44","-33.344284","115.650243",NULL,NULL
"253","Bundaberg","15","163","40","-24.879064","152.350897",NULL,NULL
"254","Burketown","15","163","0","-17.716090","139.566613",NULL,NULL
"255","Burnie","15","165","35","-41.066603","145.916664",NULL,NULL
"256","Busselton","15","167","44","-33.656409","115.348659",NULL,NULL
"257","Byron Bay","15","161","38","-28.656508","153.612887",NULL,NULL
"258","Caboolture","15","163","40","-27.082961","152.949982",NULL,NULL
"259","Cairns","15","163","40","-16.887840","145.763331",NULL,NULL
"260","Caloundra","15","163","40","-26.800032","153.133330",NULL,NULL
"261","Camooweal","15","163","0","-19.916731","138.116675",NULL,NULL
"262","Carnarvon","15","167","44","-24.899838","113.650107",NULL,NULL
"263","Ceduna","15","164","42","-32.099135","133.662267",NULL,NULL
"264","Central Coast","15","161","0","-33.420041","151.300005",NULL,NULL
"265","Charleville","15","163","0","-26.400005","146.250029",NULL,NULL
"266","Charters Towers","15","163","40","-20.080907","146.258710",NULL,NULL
"267","Clare","15","164","42","-33.832885","138.600005",NULL,NULL
"268","Cloncurry","15","163","0","-20.699991","140.499992",NULL,NULL
"269","Cobram","15","166","0","-35.919631","145.650014",NULL,NULL
"270","Coffs Harbour","15","161","40","-30.307053","153.112297",NULL,NULL
"271","Colac","15","166","37","-38.339534","143.580011",NULL,NULL
"272","Cooma","15","161","38","-36.239559","149.120035",NULL,NULL
"273","Cowell","15","164","0","-33.682868","136.916645",NULL,NULL
"274","Cowra","15","161","38","-33.829629","148.680010",NULL,NULL
"275","Cranbourne","15","166","37","-38.099601","145.283370",NULL,NULL
"276","Dalby","15","163","40","-27.193858","151.265743",NULL,NULL
"277","Darwin","15","162","43","-12.425354","130.850039",NULL,NULL
"278","Deniliquin","15","161","38","-35.529577","144.950005",NULL,NULL
"279","Derby","15","167","44","-17.299992","123.966634",NULL,NULL
"280","Devonport","15","165","35","-41.192668","146.331102",NULL,NULL
"281","Dubbo","15","161","38","-32.259957","148.597327",NULL,NULL
"282","Echuca","15","161","38","-36.129592","144.750017",NULL,NULL
"283","Eidsvold","15","163","0","-25.366218","151.133348",NULL,NULL
"284","Emerald","15","163","40","-23.512222","148.167328",NULL,NULL
"285","Erldunda","15","162","0","-25.233306","133.199973",NULL,NULL
"286","Esperance","15","167","44","-33.857307","121.888897",NULL,NULL
"287","Exmouth","15","167","0","-21.931100","114.123347",NULL,NULL
"288","Forbes","15","161","38","-33.389604","148.019998",NULL,NULL
"289","Forster-Tuncurry","15","161","38","-32.193140","152.526648",NULL,NULL
"290","Gawler","15","164","42","-34.607359","138.726354",NULL,NULL
"291","Geelong","15","166","37","-38.167495","144.395634",NULL,NULL
"292","Georgetown","15","163","0","-18.300034","143.533295",NULL,NULL
"293","Geraldton","15","167","44","-28.766630","114.599971",NULL,NULL
"294","Gingin","15","167","0","-31.349574","115.900047",NULL,NULL
"295","Gladstone","15","163","40","-23.853339","151.246726",NULL,NULL
"296","Gold Coast","15","163","40","-28.081504","153.448246",NULL,NULL
"297","Goondiwindi","15","161","0","-28.554809","150.325284",NULL,NULL
"298","Goulburn","15","161","38","-34.749573","149.710179",NULL,NULL
"299","Grafton","15","161","38","-29.711999","152.937683",NULL,NULL
"300","Griffith","15","161","38","-34.290014","146.040016",NULL,NULL
"301","Gunnedah","15","161","38","-30.987012","150.262290",NULL,NULL
"302","Gympie","15","163","40","-26.188597","152.670929",NULL,NULL
"303","Halls Creek","15","167","44","-18.266703","127.766713",NULL,NULL
"304","Hamilton","15","166","37","-37.731200","142.023413",NULL,NULL
"305","Hervey Bay","15","163","0","-25.288703","152.840944",NULL,NULL
"306","Hobart","15","165","35","-42.850009","147.295030",NULL,NULL
"307","Horsham","15","166","37","-36.709608","142.190018",NULL,NULL
"308","Hughenden","15","163","0","-20.850008","144.200025",NULL,NULL
"309","Ingham","15","163","40","-18.649574","146.166623",NULL,NULL
"310","Innisfail","15","163","40","-17.531347","146.038672",NULL,NULL
"311","Inverell","15","161","38","-29.766776","151.112574",NULL,NULL
"312","Ivanhoe","15","161","0","-32.899608","144.300019",NULL,NULL
"313","Kalbarri","15","167","44","-27.666181","114.166664",NULL,NULL
"314","Kalgoorlie","15","167","44","-30.735399","121.460017",NULL,NULL
"315","Kaltukatjara","15","162","0","-25.788414","128.997335",NULL,NULL
"316","Karratha","15","167","44","-20.730377","116.870013",NULL,NULL
"317","Karumba","15","163","0","-17.483340","140.833409",NULL,NULL
"318","Katanning","15","167","44","-33.699559","117.550075",NULL,NULL
"319","Katherine","15","162","43","-14.466625","132.266593",NULL,NULL
"320","Katoomba","15","161","38","-33.706949","150.320013",NULL,NULL
"321","Kempsey","15","161","38","-31.087367","152.822031",NULL,NULL
"322","Kiama","15","161","38","-34.709575","150.840033",NULL,NULL
"323","Kimba","15","164","0","-33.149619","136.433367",NULL,NULL
"324","Kingaroy","15","163","40","-26.538963","151.840592",NULL,NULL
"325","Kingoonya","15","164","0","-30.899575","135.300000",NULL,NULL
"326","Kingston","15","165","35","-42.991137","147.308414",NULL,NULL
"327","Kingston South East","15","164","0","-36.832805","139.850058",NULL,NULL
"328","Kununurra","15","167","44","-15.766597","128.733320",NULL,NULL
"329","Kwinana","15","167","44","-32.239390","115.770236",NULL,NULL
"330","Launceston","15","165","35","-41.449836","147.130182",NULL,NULL
"331","Laverton","15","167","0","-28.627001","122.404043",NULL,NULL
"332","Leeton","15","161","38","-34.544934","146.397307",NULL,NULL
"333","Leonara","15","167","0","-28.881507","121.328036",NULL,NULL
"334","Lismore","15","161","38","-28.816653","153.293113",NULL,NULL
"335","Lithgow","15","161","38","-33.496109","150.152788",NULL,NULL
"336","Longreach","15","163","0","-23.449591","144.250048",NULL,NULL
"337","Mackay","15","163","40","-21.143892","149.150007",NULL,NULL
"338","Maitland","15","161","38","-32.720963","151.555028",NULL,NULL
"339","Mandurah","15","167","44","-32.523483","115.747057",NULL,NULL
"340","Manjimup","15","167","44","-34.233325","116.150006",NULL,NULL
"341","Maryborough","15","163","40","-25.549101","152.720900",NULL,NULL
"342","McMinns Lagoon","15","162","43","-12.532893","131.050026",NULL,NULL
"343","Meekatharra","15","167","0","-26.599993","118.483300",NULL,NULL
"344","Melbourne","15","166","0","-37.820031","144.975016",NULL,NULL
"345","Melton","15","166","37","-37.689548","144.570028",NULL,NULL
"346","Meningie","15","164","42","-35.699541","139.333345",NULL,NULL
"347","Merimbula","15","161","38","-36.899622","149.900039",NULL,NULL
"348","Merredin","15","167","44","-31.482847","118.266672",NULL,NULL
"349","Mildura","15","166","37","-34.185008","142.151364",NULL,NULL
"350","Moranbah","15","163","40","-22.001565","148.038033",NULL,NULL
"351","Morawa","15","167","0","-29.216267","116.000041",NULL,NULL
"352","Moree","15","161","38","-29.469895","149.830069",NULL,NULL
"353","Mount Barker","15","167","44","-34.632784","117.666606",NULL,NULL
"354","Mount Gambier","15","164","42","-37.831348","140.765041",NULL,NULL
"355","Mount Isa","15","163","40","-20.723866","139.490028",NULL,NULL
"356","Mount Magnet","15","167","0","-28.066208","117.816674",NULL,NULL
"357","Mudgee","15","161","0","-32.589601","149.580110",NULL,NULL
"358","Murray Bridge","15","164","42","-35.129601","139.260016",NULL,NULL
"359","Muswellbrook","15","161","38","-32.269569","150.890004",NULL,NULL
"360","Narrabri","15","161","38","-30.331910","149.787436",NULL,NULL
"361","Narrogin","15","167","44","-32.932888","117.166636",NULL,NULL
"362","Newcastle","15","161","38","-32.845348","151.815012",NULL,NULL
"363","Newcastle Waters","15","162","0","-17.552793","133.467243",NULL,NULL
"364","Newman","15","167","44","-23.366598","119.733301",NULL,NULL
"365","Norseman","15","167","0","-32.200013","121.766614",NULL,NULL
"366","Northam","15","167","44","-31.656583","116.653386",NULL,NULL
"367","Nowra","15","161","38","-34.882846","150.600048",NULL,NULL
"368","Oatlands","15","165","0","-42.299603","147.366602",NULL,NULL
"369","Onslow","15","167","0","-21.657594","115.096296",NULL,NULL
"370","Orange","15","161","38","-33.279998","149.099984",NULL,NULL
"371","Ouyen","15","166","37","-35.066194","142.316677",NULL,NULL
"372","Pannawonica","15","167","0","-21.636575","116.325034",NULL,NULL
"373","Parkes","15","161","38","-33.129568","148.170015",NULL,NULL
"374","Penola","15","164","42","-37.382952","140.816665",NULL,NULL
"375","Perth","15","167","44","-31.955015","115.839999",NULL,NULL
"376","Peterborough","15","164","42","-32.966167","138.833324",NULL,NULL
"377","Pine Creek","15","162","0","-13.816173","131.816698",NULL,NULL
"378","Port Augusta","15","164","42","-32.490021","137.770030",NULL,NULL
"379","Port Denison","15","167","44","-29.282826","114.916644",NULL,NULL
"380","Port Douglas","15","163","41","-16.484588","145.458722",NULL,NULL
"381","Port Hedland","15","167","44","-20.310402","118.606031",NULL,NULL
"382","Port Lincoln","15","164","42","-34.733243","135.866580",NULL,NULL
"383","Port Macquarie","15","161","38","-31.445020","152.918666",NULL,NULL
"384","Port Pirie","15","164","42","-33.191063","137.990016",NULL,NULL
"385","Portland","15","166","37","-38.340000","141.590003",NULL,NULL
"386","Proserpine","15","163","0","-20.416236","148.583478",NULL,NULL
"387","Queenstown","15","165","35","-42.082924","145.550020",NULL,NULL
"388","Quilpie","15","163","0","-26.616632","144.250048",NULL,NULL
"389","Ravensthorpe","15","167","44","-33.582874","120.033335",NULL,NULL
"390","Richmond","15","163","0","-20.716269","143.133320",NULL,NULL
"391","Rockhampton","15","163","40","-23.363911","150.520001",NULL,NULL
"392","Roebourne","15","167","44","-20.782932","117.133305",NULL,NULL
"393","Roma","15","163","40","-26.559375","148.790701",NULL,NULL
"394","Sale","15","166","37","-38.109574","147.060005",NULL,NULL
"395","Scone","15","161","0","-32.079607","150.850110",NULL,NULL
"396","Scottsdale","15","165","35","-41.149492","147.516670",NULL,NULL
"397","Seymour","15","166","0","-37.034239","145.127307",NULL,NULL
"398","Shepparton","15","166","37","-36.374590","145.391373",NULL,NULL
"399","Singleton","15","161","38","-32.569499","151.160013",NULL,NULL
"400","Smithton","15","165","35","-40.832922","145.116661",NULL,NULL
"401","Southern Cross","15","167","0","-31.216145","119.316686",NULL,NULL
"402","Stawell","15","166","37","-37.059613","142.760009",NULL,NULL
"403","Streaky Bay","15","164","42","-32.811872","134.214930",NULL,NULL
"404","Sunbury","15","166","37","-37.569607","144.710019",NULL,NULL
"405","Sunshine Coast","15","163","0","-26.679988","153.050027",NULL,NULL
"406","Swan Hill","15","166","37","-35.339614","143.540013",NULL,NULL
"407","Sydney","15","161","0","-33.920011","151.185180",NULL,NULL
"408","Tamworth","15","161","38","-31.102612","150.917134",NULL,NULL
"409","Taree","15","161","38","-31.897602","152.461846",NULL,NULL
"410","Tennant Creek","15","162","43","-19.650029","134.200015",NULL,NULL
"411","Thargomindah","15","163","0","-27.999959","143.816689",NULL,NULL
"412","Theodore","15","163","0","-24.949499","150.083335",NULL,NULL
"413","Three Springs","15","167","0","-29.533302","115.749978",NULL,NULL
"414","Tom Price","15","167","44","-22.693461","117.793058",NULL,NULL
"415","Toowoomba","15","163","40","-27.564533","151.955520",NULL,NULL
"416","Townsville","15","163","40","-19.249950","146.769997",NULL,NULL
"417","Traralgon","15","166","37","-38.199595","146.530012",NULL,NULL
"418","Tumby Bay","15","164","42","-34.382928","136.083311",NULL,NULL
"419","Tumut","15","161","38","-35.309590","148.220038",NULL,NULL
"420","Tweed Heads","15","161","0","-28.182583","153.546638",NULL,NULL
"421","Ulladulla","15","161","38","-35.349536","150.470030",NULL,NULL
"422","Victor Harbor","15","164","42","-35.559601","138.617316",NULL,NULL
"423","Wagga Wagga","15","161","38","-35.122160","147.339988",NULL,NULL
"424","Wagin","15","167","44","-33.299584","117.349984",NULL,NULL
"425","Wallaroo","15","164","42","-33.932878","137.633294",NULL,NULL
"426","Wangaratta","15","166","37","-36.360017","146.300000",NULL,NULL
"427","Warrnambool","15","166","37","-38.379997","142.470001",NULL,NULL
"428","Warwick","15","163","40","-28.229247","152.020323",NULL,NULL
"429","Weipa","15","163","0","-12.666631","141.866627",NULL,NULL
"430","Whyalla","15","164","42","-33.025027","137.561412",NULL,NULL
"431","Wilcannia","15","161","0","-31.566201","143.383330",NULL,NULL
"432","Windorah","15","163","0","-25.433242","142.650197",NULL,NULL
"433","Winton","15","163","0","-22.399629","143.033274",NULL,NULL
"434","Wollongong","15","161","38","-34.415381","150.890004",NULL,NULL
"435","Wonthaggi","15","166","37","-38.609492","145.590017",NULL,NULL
"436","Woomera","15","164","0","-31.149586","136.800011",NULL,NULL
"437","Wyndham","15","167","0","-15.373960","128.360061",NULL,NULL
"438","Yamba","15","161","0","-29.422991","153.353312",NULL,NULL
"439","Yeppoon","15","163","40","-23.132917","150.756731",NULL,NULL
"440","Young","15","161","38","-34.309600","148.290008",NULL,NULL
"441","Yulara","15","162","0","-25.240541","130.988893",NULL,NULL
"442","Bregenz","16","178","32","47.516697","9.766702",NULL,NULL
"443","Eisenstadt","16","171","32","47.833299","16.533297",NULL,NULL
"444","Graz","16","176","32","47.077758","15.410005",NULL,NULL
"445","Innsbruck","16","177","32","47.280407","11.409991",NULL,NULL
"446","Salzburg","16","175","32","47.810478","13.040020",NULL,NULL
"447","Vienna","16","179","32","48.200015","16.366639",NULL,NULL
"448","Agdam","17","242","48","40.905278","45.556389",NULL,NULL
"449","Goranboy","17","200","48","40.610278","46.789722",NULL,NULL
"450","Lankaran","17","186","0","38.754003","48.851064",NULL,NULL
"451","Tovuz","17","242","48","40.992222","45.628889",NULL,NULL
"452","Yevlax","17","251","48","40.617196","47.150031",NULL,NULL
"453","Bubanza","18","255","56","-3.083301","29.366704",NULL,NULL
"454","Bujumbura","18","257","56","-3.376087","29.360006",NULL,NULL
"455","Bururi","18","258","56","-3.950729","29.616580",NULL,NULL
"456","Cankuzo","18","259","56","-3.166704","30.516697",NULL,NULL
"457","Gitega","18","266","56","-3.426007","29.843594",NULL,NULL
"458","Karusi","18","263","56","-3.099996","30.162996",NULL,NULL
"459","Kayanza","18","264","56","-2.899998","29.566702",NULL,NULL
"460","Kirundo","18","262","56","-2.584722","30.097222",NULL,NULL
"461","Makamba","18","265","56","-4.133304","29.800000",NULL,NULL
"462","Muramvya","18","266","56","-3.260997","29.611999",NULL,NULL
"463","Muyinga","18","268","56","-2.852347","30.317260",NULL,NULL
"464","Ngozi","18","269","56","-2.912004","29.825002",NULL,NULL
"465","Rutana","18","270","56","-3.931002","29.993005",NULL,NULL
"466","Ruyigi","18","271","56","-3.481002","30.243997",NULL,NULL
"467","Antwerpen","19","273","52","51.220374","4.415017",NULL,NULL
"468","Brussels","19","272","52","50.833317","4.333317",NULL,NULL
"469","Gent","19","276","52","51.029998","3.700022",NULL,NULL
"470","Hasselt","19","275","52","50.964003","5.483998",NULL,NULL
"471","Liege","19","280","52","50.629996","5.580011",NULL,NULL
"472","Mons","19","279","52","50.445999","3.939004",NULL,NULL
"473","Namur","19","282","52","50.470393","4.870028",NULL,NULL
"474","Abomey","20","294","57","7.190400","1.989997",NULL,NULL
"475","Djougou","20","288","57","9.700427","1.680042",NULL,NULL
"476","Kandi","20","284","57","11.130366","2.940017",NULL,NULL
"477","Lokossa","20","291","57","6.615000","1.715004",NULL,NULL
"478","Natitingou","20","283","57","10.320415","1.389982",NULL,NULL
"479","Ouidah","20","285","57","6.360373","2.089991",NULL,NULL
"480","Parakou","20","286","57","9.340010","2.620036",NULL,NULL
"481","Bobo Dioulasso","21","306","53","11.179975","-4.289981",NULL,NULL
"482","Bogande","21","304","53","12.969000","-0.137996",NULL,NULL
"483","Boulsa","21","319","53","12.656997","-0.568998",NULL,NULL
"484","Dedougou","21","318","53","12.455001","-3.464000",NULL,NULL
"485","Diapaga","21","333","53","12.077001","1.796005",NULL,NULL
"486","Diebougou","21","299","53","10.952001","-3.248000",NULL,NULL
"487","Djibo","21","331","53","14.099004","-1.627001",NULL,NULL
"488","Fada Ngourma","21","305","53","12.054996","0.360999",NULL,NULL
"489","Gaoua","21","322","53","10.324998","-3.174002",NULL,NULL
"490","Gorom Gorom","21","324","53","14.450004","-0.233298",NULL,NULL
"491","Kaya","21","329","53","13.090375","-1.090047",NULL,NULL
"492","Koupela","21","314","53","12.177000","-0.356004",NULL,NULL
"493","Leo","21","328","53","11.094003","-2.097999",NULL,NULL
"494","Nouna","21","313","53","12.728997","-3.860001",NULL,NULL
"495","Ouagadougou","21","308","53","12.370316","-1.524724",NULL,NULL
"496","Ouahigouya","21","336","53","13.570424","-2.419992",NULL,NULL
"497","Po","21","320","53","11.169000","-1.134998",NULL,NULL
"498","Sapouy","21","337","53","11.554444","-1.773611",NULL,NULL
"499","Sebba","21","335","53","13.436412","0.530443",NULL,NULL
"500","Solenzo","21","297","53","12.183333","-4.083333",NULL,NULL
"501","Tenkodogo","21","300","53","11.780404","-0.369704",NULL,NULL
"502","Tougan","21","332","53","13.068999","-3.069998",NULL,NULL
"503","Ziniare","21","323","53","12.576996","-1.293002",NULL,NULL
"504","Zorgo","21","303","53","12.242997","-0.611000",NULL,NULL
"505","Barisal","22","340","51","22.700409","90.374990",NULL,NULL
"506","Chittagong","22","341","51","22.329992","91.799967",NULL,NULL
"507","Comilla","22","341","51","23.470414","91.169980",NULL,NULL
"508","Dhaka","22","342","51","23.723060","90.408579",NULL,NULL
"509","Jamalpur","22","342","51","24.900430","89.950003",NULL,NULL
"510","Jessore","22","343","51","23.170432","89.199971",NULL,NULL
"511","Khulna","22","343","51","22.839987","89.560001",NULL,NULL
"512","Mymensingh","22","342","51","24.750413","90.380002",NULL,NULL
"513","Narayanganj","22","342","51","23.620404","90.499995",NULL,NULL
"514","Nawabganj","22","344","51","24.580398","88.349997",NULL,NULL
"515","Pabna","22","344","51","24.000381","89.249994",NULL,NULL
"516","Rajshahi","22","344","51","24.374984","88.605020",NULL,NULL
"517","Rangpur","22","344","51","25.750016","89.280018",NULL,NULL
"518","Saidpur","22","344","0","25.800426","88.999983",NULL,NULL
"519","Sylhet","22","346","51","24.903556","91.873606",NULL,NULL
"520","Tangail","22","342","51","24.249978","89.920030",NULL,NULL
"521","Burgas","23","348","54","42.514600","27.474643",NULL,NULL
"522","Dobrich","23","354","54","43.585051","27.839995",NULL,NULL
"523","Khaskovo","23","372","54","41.943782","25.563287",NULL,NULL
"524","Kyustendil","23","356","54","42.284278","22.691111",NULL,NULL
"525","Lovec","23","357","54","43.137999","24.719005",NULL,NULL
"526","Montana","23","358","54","43.414002","23.237002",NULL,NULL
"527","Pernik","23","360","54","42.609995","23.022718",NULL,NULL
"528","Pleven","23","361","54","43.423769","24.613371",NULL,NULL
"529","Plovdiv","23","362","54","42.153976","24.753982",NULL,NULL
"530","Razgrad","23","363","54","43.533999","26.535997",NULL,NULL
"531","Ruse","23","364","54","43.853691","25.973339",NULL,NULL
"532","Shumen","23","373","54","43.270006","26.929353",NULL,NULL
"533","Sliven","23","366","54","42.679370","26.330010",NULL,NULL
"534","Sofia","23","368","54","42.683349","23.316654",NULL,NULL
"535","Stara Zagora","23","370","54","42.423133","25.622715",NULL,NULL
"536","Turnovo","23","350","0","43.086245","25.655529",NULL,NULL
"537","Varna","23","349","54","43.215643","27.895289",NULL,NULL
"538","Vratsa","23","352","54","43.209984","23.562530",NULL,NULL
"539","Sarajevo","26","417","49","43.850022","18.383002",NULL,NULL
"540","Babruysk","29","428","82","53.126562","29.192781",NULL,NULL
"541","Baranavichy","29","424","82","53.136846","26.013440",NULL,NULL
"542","Barysaw","29","425","82","54.226004","28.492152",NULL,NULL
"543","Brest","29","424","82","52.099984","23.699990",NULL,NULL
"544","Homyel","29","426","82","52.430015","31.000009",NULL,NULL
"545","Hrodna","29","427","82","53.677872","23.834090",NULL,NULL
"546","Lida","29","427","82","53.888479","25.284648",NULL,NULL
"547","Mahilyow","29","428","82","53.898505","30.324650",NULL,NULL
"548","Maladzyechna","29","425","82","54.318789","26.865326",NULL,NULL
"549","Mazyr","29","426","82","52.045956","29.272156",NULL,NULL
"550","Minsk","29","425","82","53.899977","27.566627",NULL,NULL
"551","Orsha","29","430","82","54.515315","30.421543",NULL,NULL
"552","Pinsk","29","424","82","52.127863","26.094056",NULL,NULL
"553","Polatsk","29","430","82","55.489389","28.785984",NULL,NULL
"554","Vitsyebsk","29","430","82","55.188710","30.185330",NULL,NULL
"555","Belize City","30","431","83","17.498711","-88.188374",NULL,NULL
"556","Belmopan","30","432","83","17.252034","-88.767073",NULL,NULL
"557","Corozal","30","433","83","18.397998","-88.388001",NULL,NULL
"558","Dangriga","30","435","83","16.970035","-88.220000",NULL,NULL
"559","El Cayo","30","432","0","17.155998","-89.061003",NULL,NULL
"560","Orange Walk","30","434","83","18.090432","-88.559980",NULL,NULL
"561","Punta Gorda","30","436","83","16.100347","-88.810016",NULL,NULL
"562","Achacachi","32","451","61","-16.083322","-68.666569",NULL,NULL
"563","Aiquile","32","449","61","-18.189550","-65.180011",NULL,NULL
"564","Apolo","32","451","0","-14.719581","-68.419995",NULL,NULL
"565","Ascension","32","455","61","-15.699573","-63.079985",NULL,NULL
"566","Baures","32","448","0","-13.580012","-63.580057",NULL,NULL
"567","Bermejo","32","456","0","-22.729583","-64.349985",NULL,NULL
"568","Camargo","32","450","61","-20.639581","-65.209984",NULL,NULL
"569","Camiri","32","455","61","-20.050005","-63.519984",NULL,NULL
"570","Challapata","32","453","61","-18.899584","-66.779991",NULL,NULL
"571","Charagua","32","455","61","-19.799581","-63.219950",NULL,NULL
"572","Charana","32","451","0","-17.599612","-69.466597",NULL,NULL
"573","Cliza","32","449","61","-17.590000","-65.929991",NULL,NULL
"574","Cochabamba","32","449","61","-17.410011","-66.169977",NULL,NULL
"575","Coro Coro","32","451","0","-17.169612","-68.449967",NULL,NULL
"576","Coroico","32","451","61","-16.189620","-67.720011",NULL,NULL
"577","Cuevo","32","455","0","-20.450032","-63.529983",NULL,NULL
"578","Entre Rios","32","456","61","-21.530018","-64.189994",NULL,NULL
"579","Guayaramerin","32","448","61","-10.829999","-65.409997",NULL,NULL
"580","La Paz","32","451","61","-16.497974","-68.149985",NULL,NULL
"581","Magdalena","32","448","0","-13.260083","-64.052768",NULL,NULL
"582","Montero","32","455","61","-17.349601","-63.260025",NULL,NULL
"583","Oruro","32","453","61","-17.979950","-67.129996",NULL,NULL
"584","Padilla","32","450","61","-19.299611","-64.309961",NULL,NULL
"585","Piso Firme","32","455","0","-13.682952","-61.866622",NULL,NULL
"586","Portachuelo","32","455","61","-17.360040","-63.400017",NULL,NULL
"587","Puerto Acosta","32","451","0","-15.499585","-69.166667",NULL,NULL
"588","Puerto Heath","32","451","0","-12.499613","-68.666569",NULL,NULL
"589","Puerto Quijarro","32","455","61","-17.779601","-57.770024",NULL,NULL
"590","Puerto Suarez","32","455","0","-18.949555","-57.849968",NULL,NULL
"591","Puerto Villarroel","32","449","0","-16.870044","-64.780010",NULL,NULL
"592","Punata","32","449","61","-17.550002","-65.839971",NULL,NULL
"593","Quillacollo","32","449","0","-17.399986","-66.279996",NULL,NULL
"594","Quime","32","451","61","-16.980011","-67.220016",NULL,NULL
"595","Reyes","32","448","61","-14.309580","-67.370007",NULL,NULL
"596","Riberalta","32","448","61","-10.983013","-66.100007",NULL,NULL
"597","Robore","32","455","61","-18.329541","-59.759981",NULL,NULL
"598","Rurrenabaque","32","451","61","-14.460010","-67.559995",NULL,NULL
"599","Sabaya","32","453","0","-19.016270","-68.383278",NULL,NULL
"600","Samaipata","32","455","0","-18.180041","-63.770020",NULL,NULL
"601","San Borja","32","448","61","-14.819626","-66.849961",NULL,NULL
"602","San Carlos","32","455","61","-17.399986","-63.729997",NULL,NULL
"603","San Ignacio","32","455","61","-16.369609","-60.960011",NULL,NULL
"604","San Javier","32","455","0","-16.289614","-62.500020",NULL,NULL
"605","San Jose","32","455","0","-17.850036","-60.779996",NULL,NULL
"606","San Lorenzo","32","456","0","-21.479943","-64.770011",NULL,NULL
"607","San Matias","32","455","61","-16.359998","-58.420011",NULL,NULL
"608","San Rafael","32","455","0","-16.779507","-60.679950",NULL,NULL
"609","San Ramon","32","448","61","-13.289591","-64.709988",NULL,NULL
"610","Santa Ana","32","448","0","-13.760001","-65.579961",NULL,NULL
"611","Santa Cruz","32","455","61","-17.753918","-63.225996",NULL,NULL
"612","Sica Sica","32","451","0","-17.330016","-67.729985",NULL,NULL
"613","Sorata","32","451","61","-15.790006","-68.660057",NULL,NULL
"614","Sucre","32","450","61","-19.040971","-65.259516",NULL,NULL
"615","Tarabuco","32","450","61","-19.180032","-64.919950",NULL,NULL
"616","Tarija","32","456","61","-21.516685","-64.749986",NULL,NULL
"617","Trinidad","32","448","61","-14.833372","-64.899977",NULL,NULL
"618","Vallegrande","32","455","61","-18.489583","-64.109999",NULL,NULL
"619","Viacha","32","451","0","-16.650006","-68.299950",NULL,NULL
"620","Villamontes","32","456","61","-21.249570","-63.500011",NULL,NULL
"621","Acu","33","476","65","-5.579622","-36.910057",NULL,NULL
"622","Alagoinhas","33","461","69","-12.139997","-38.429990",NULL,NULL
"623","Almenara","33","467","70","-16.170035","-40.700007",NULL,NULL
"624","Alta Floresta","33","468","72","-9.900030","-55.909983",NULL,NULL
"625","Alvorada","33","483","67","-12.470002","-49.082002",NULL,NULL
"626","Apodi","33","476","65","-5.650005","-37.800003",NULL,NULL
"627","Aquidauana","33","468","71","-20.469617","-55.790016",NULL,NULL
"628","Aracaju","33","481","68","-10.900021","-37.119967",NULL,NULL
"629","Aracuai","33","467","70","-16.859605","-42.069949",NULL,NULL
"630","Araguaina","33","483","0","-7.190015","-48.210014",NULL,NULL
"631","Araguari","33","467","70","-18.640013","-48.199988",NULL,NULL
"632","Arapiraca","33","458","68","-9.750013","-36.669995",NULL,NULL
"633","Ararangua","33","480","70","-28.940005","-49.499987",NULL,NULL
"634","Araxa","33","467","70","-19.579594","-46.950013",NULL,NULL
"635","Arcoverde","33","472","66","-8.420017","-37.069996",NULL,NULL
"636","Aripuana","33","468","72","-9.169997","-60.640004",NULL,NULL
"637","Bage","33","479","70","-31.320015","-54.100016",NULL,NULL
"638","Barbacena","33","467","70","-21.220011","-43.770000",NULL,NULL
"639","Barcelos","33","459","76","-0.974993","-62.923896",NULL,NULL
"640","Barra do Bugres","33","468","72","-15.069585","-57.190008",NULL,NULL
"641","Barra do Garcas","33","468","72","-15.879613","-52.259999",NULL,NULL
"642","Barra Mansa","33","475","70","-22.560033","-44.169950",NULL,NULL
"643","Barreiras","33","461","69","-12.139997","-45.000003",NULL,NULL
"644","Barreiros","33","472","66","-8.829604","-35.200007",NULL,NULL
"645","Belo Horizonte","33","467","70","-19.915026","-43.915005",NULL,NULL
"646","Bento Goncalves","33","479","70","-29.169500","-51.519967",NULL,NULL
"647","Blumenau","33","480","70","-26.920025","-49.089986",NULL,NULL
"648","Boa Vista","33","478","75","2.816093","-60.665998",NULL,NULL
"649","Bocaiuva","33","467","70","-17.109616","-43.810050",NULL,NULL
"650","Bom Jesus da Lapa","33","461","69","-13.249541","-43.440021",NULL,NULL
"651","Brasilia","33","463","70","-15.783340","-47.916052",NULL,NULL
"652","Brumado","33","461","69","-14.210000","-41.670025",NULL,NULL
"653","Brusque","33","480","70","-27.129986","-48.930021",NULL,NULL
"654","Cabo de Santo Agostinho","33","472","66","-8.289999","-35.029991",NULL,NULL
"655","Cabo Frio","33","475","70","-22.889987","-42.039977",NULL,NULL
"656","Cacador","33","480","70","-26.770008","-51.020023",NULL,NULL
"657","Caceres","33","468","0","-16.050042","-57.510014",NULL,NULL
"658","Cachoeira do Sul","33","479","70","-30.029964","-52.909985",NULL,NULL
"659","Caico","33","476","65","-6.459620","-37.100020",NULL,NULL
"660","Camaqua","33","479","70","-30.839631","-51.810001",NULL,NULL
"661","Campo Belo","33","467","70","-20.889592","-45.279986",NULL,NULL
"662","Campo Grande","33","468","71","-20.450032","-54.616625",NULL,NULL
"663","Campos","33","475","70","-21.749953","-41.320021",NULL,NULL
"664","Canavieiras","33","461","69","-15.640041","-38.960010",NULL,NULL
"665","Canela","33","479","70","-29.360031","-50.810010",NULL,NULL
"666","Canoas","33","479","70","-29.919997","-51.179987",NULL,NULL
"667","Canoinhas","33","480","70","-26.179967","-50.400009",NULL,NULL
"668","Caracarai","33","478","0","1.816232","-61.127675",NULL,NULL
"669","Caratinga","33","467","70","-19.790021","-42.139997",NULL,NULL
"670","Carazinho","33","479","70","-28.290019","-52.800044",NULL,NULL
"671","Carpina","33","472","66","-7.840001","-35.260003",NULL,NULL
"672","Caruaru","33","472","66","-8.280026","-35.980011",NULL,NULL
"673","Caxias","33","466","0","-4.833001","-43.350026",NULL,NULL
"674","Caxias do Sul","33","479","70","-29.179990","-51.170040",NULL,NULL
"675","Coari","33","459","76","-4.079972","-63.129982",NULL,NULL
"676","Colider","33","468","0","-10.817287","-55.450579",NULL,NULL
"677","Concordia","33","480","70","-27.230032","-52.030013",NULL,NULL
"678","Conselheiro Lafaiete","33","467","70","-20.670019","-43.789999",NULL,NULL
"679","Corumba","33","468","71","-19.016011","-57.650006",NULL,NULL
"680","Crato","33","459","0","-7.463900","-63.039961",NULL,NULL
"681","Criciuma","33","480","70","-28.680021","-49.389967",NULL,NULL
"682","Cruzeiro do Sul","33","457","0","-7.629988","-72.669968",NULL,NULL
"683","Cuiaba","33","468","72","-15.569607","-56.084985",NULL,NULL
"684","Curvelo","33","467","70","-18.759593","-44.429986",NULL,NULL
"685","Diamantina","33","467","70","-18.239986","-43.609984",NULL,NULL
"686","Divinopolis","33","467","70","-20.149534","-44.899983",NULL,NULL
"687","Dourados","33","468","71","-22.230027","-54.809998",NULL,NULL
"688","Duque de Caxias","33","475","70","-22.769994","-43.309977",NULL,NULL
"689","Eirunepe","33","459","76","-6.660021","-69.873808",NULL,NULL
"690","Erechim","33","479","70","-27.630007","-52.269998",NULL,NULL
"691","Estancia","33","481","68","-11.269611","-37.450024",NULL,NULL
"692","Feira de Santana","33","461","69","-12.250016","-38.970009",NULL,NULL
"693","Florianopolis","33","480","70","-27.579985","-48.520021",NULL,NULL
"694","Fonte Boa","33","459","76","-2.513814","-66.091610",NULL,NULL
"695","Formiga","33","467","70","-20.460006","-45.430028",NULL,NULL
"696","Frutal","33","467","70","-20.030006","-48.940021",NULL,NULL
"697","Garanhuns","33","472","66","-8.890014","-36.500031",NULL,NULL
"698","Goiana","33","472","66","-7.559604","-34.999993",NULL,NULL
"699","Governador Valadares","33","467","70","-18.870025","-41.970007",NULL,NULL
"700","Guanambi","33","461","69","-14.229585","-42.789983",NULL,NULL
"701","Guanhaes","33","467","70","-18.780005","-42.950025",NULL,NULL
"702","Guaxupe","33","467","70","-21.290033","-46.709950",NULL,NULL
"703","Gurupi","33","483","67","-11.719609","-49.059988",NULL,NULL
"704","Ijui","33","479","70","-28.389548","-53.919949",NULL,NULL
"705","Ilheus","33","461","69","-14.780042","-39.050004",NULL,NULL
"706","Imbituba","33","480","70","-28.229609","-48.660012",NULL,NULL
"707","Ipatinga","33","467","70","-19.479600","-42.519999",NULL,NULL
"708","Irece","33","461","69","-11.299996","-41.870013",NULL,NULL
"709","Itaberaba","33","461","69","-12.519612","-40.299980",NULL,NULL
"710","Itabuna","33","461","69","-14.789602","-39.280016",NULL,NULL
"711","Itacoatiara","33","459","0","-3.140029","-58.439984",NULL,NULL
"712","Itajai","33","480","70","-26.899613","-48.680011",NULL,NULL
"713","Itamaraju","33","461","69","-17.039594","-39.529949",NULL,NULL
"714","Itambe","33","461","69","-15.239601","-40.629985",NULL,NULL
"715","Itapetinga","33","461","69","-15.249988","-40.249983",NULL,NULL
"716","Itauna","33","467","70","-20.060030","-44.570029",NULL,NULL
"717","Ituiutaba","33","467","70","-18.970019","-49.459989",NULL,NULL
"718","Iturama","33","467","70","-19.729973","-50.200021",NULL,NULL
"719","Jaboatao","33","472","66","-8.110010","-35.020044",NULL,NULL
"720","Jacareacanga","33","470","0","-6.266608","-57.650006",NULL,NULL
"721","Jacunda","33","470","0","-4.599578","-49.389967",NULL,NULL
"722","Jaguaquara","33","461","69","-13.529989","-39.970000",NULL,NULL
"723","Jaguarao","33","479","70","-32.560042","-53.369983",NULL,NULL
"724","Janauba","33","467","70","-15.799618","-43.309977",NULL,NULL
"725","Januaria","33","467","70","-15.480000","-44.369990",NULL,NULL
"726","Jaragua do Sul","33","480","70","-26.480000","-49.099985",NULL,NULL
"727","Jardim","33","468","71","-21.479943","-56.150020",NULL,NULL
"728","Jequie","33","461","69","-13.850022","-40.079993",NULL,NULL
"729","Joacaba","33","480","70","-27.170035","-51.499968",NULL,NULL
"730","Joinville","33","480","70","-26.319958","-48.839949",NULL,NULL
"731","Juazeiro","33","461","0","-9.420008","-40.499967",NULL,NULL
"732","Juina","33","468","0","-11.399577","-59.500022",NULL,NULL
"733","Juiz de Fora","33","467","70","-21.770003","-43.374986",NULL,NULL
"734","Laguna","33","480","70","-28.480033","-48.779979",NULL,NULL
"735","Lajes","33","480","70","-27.809583","-50.309989",NULL,NULL
"736","Lavras","33","467","70","-21.249570","-45.009951",NULL,NULL
"737","Leopoldina","33","467","70","-21.530018","-42.640044",NULL,NULL
"738","Macae","33","475","70","-22.379992","-41.789992",NULL,NULL
"739","Maceio","33","458","68","-9.619996","-35.729974",NULL,NULL
"740","Manacapuru","33","459","76","-3.289581","-60.619980",NULL,NULL
"741","Manaus","33","459","76","-3.100032","-60.000018",NULL,NULL
"742","Manicore","33","459","76","-5.812166","-61.297484",NULL,NULL
"743","Maracaju","33","468","71","-21.610013","-55.180028",NULL,NULL
"744","Mato Grosso","33","468","0","-15.000029","-59.950021",NULL,NULL
"745","Maues","33","459","76","-3.389626","-57.720028",NULL,NULL
"746","Miracema","33","475","70","-21.410025","-42.199967",NULL,NULL
"747","Montes Claros","33","467","70","-16.720027","-43.860021",NULL,NULL
"748","Mossoro","33","476","65","-5.190033","-37.340005",NULL,NULL
"749","Muriae","33","467","70","-21.130042","-42.389981",NULL,NULL
"750","Nanuque","33","467","70","-17.839959","-40.350028",NULL,NULL
"751","Natal","33","476","65","-5.780023","-35.240004",NULL,NULL
"752","Niteroi","33","475","70","-22.900012","-43.099990",NULL,NULL
"753","Nova Cruz","33","476","65","-6.469593","-35.439992",NULL,NULL
"754","Nova Friburgo","33","475","70","-22.259999","-42.540050",NULL,NULL
"755","Nova Iguacu","33","475","70","-22.740022","-43.469967",NULL,NULL
"756","Nova Lima","33","467","70","-19.980035","-43.850021",NULL,NULL
"757","Nova Vicosa","33","461","69","-17.880008","-39.370011",NULL,NULL
"758","Novo Airao","33","459","0","-2.620784","-60.943784",NULL,NULL
"759","Novo Hamburgo","33","479","70","-29.709622","-51.139990",NULL,NULL
"760","Olinda","33","472","66","-7.999991","-34.849951",NULL,NULL
"761","Osorio","33","479","70","-29.879999","-50.269991",NULL,NULL
"762","Palmas","33","483","67","-10.237736","-48.287787",NULL,NULL
"763","Palmeira dos Indios","33","458","0","-9.416597","-36.616639",NULL,NULL
"764","Paracatu","33","467","70","-17.199585","-46.869992",NULL,NULL
"765","Paranaiba","33","468","71","-19.679588","-51.200012",NULL,NULL
"766","Parintins","33","459","76","-2.610036","-56.740010",NULL,NULL
"767","Passo Fundo","33","479","70","-28.250021","-52.419989",NULL,NULL
"768","Passos","33","467","70","-20.710016","-46.609982",NULL,NULL
"769","Paulo Afonso","33","461","69","-9.330659","-38.265659",NULL,NULL
"770","Pedreiras","33","466","0","-4.569606","-44.670023",NULL,NULL
"771","Pelotas","33","479","70","-31.750014","-52.330021",NULL,NULL
"772","Penedo","33","458","68","-10.269620","-36.580026",NULL,NULL
"773","Petrolina","33","472","66","-9.380010","-40.509967",NULL,NULL
"774","Petropolis","33","475","70","-22.509493","-43.199984",NULL,NULL
"775","Pirapora","33","467","70","-17.330016","-44.929981",NULL,NULL
"776","Pocos de Caldas","33","467","70","-21.780028","-46.569985",NULL,NULL
"777","Ponta Pora","33","468","71","-22.530009","-55.729968",NULL,NULL
"778","Ponte Nova","33","467","70","-20.409621","-42.899950",NULL,NULL
"779","Pontes e Lacerda","33","468","72","-15.219602","-59.349980",NULL,NULL
"780","Porto Alegre","33","479","70","-30.050015","-51.200012",NULL,NULL
"781","Porto Nacional","33","483","0","-10.700033","-48.419949",NULL,NULL
"782","Porto Seguro","33","461","69","-16.429606","-39.080028",NULL,NULL
"783","Porto Uniao","33","480","70","-26.239601","-51.079968",NULL,NULL
"784","Pouso Alegre","33","467","70","-22.220002","-45.940023",NULL,NULL
"785","Quarai","33","479","70","-30.380020","-56.459949",NULL,NULL
"786","Recife","33","472","66","-8.075645","-34.915606",NULL,NULL
"787","Remanso","33","461","0","-9.599583","-42.109998",NULL,NULL
"788","Rio Branco","33","457","78","-9.966589","-67.800007",NULL,NULL
"789","Rio de Janeiro","33","475","70","-22.925023","-43.225021",NULL,NULL
"790","Rio Grande","33","479","70","-32.049479","-52.120008",NULL,NULL
"791","Rio Largo","33","458","68","-9.480004","-35.839968",NULL,NULL
"792","Rio Verde","33","465","0","-17.819598","-50.929977",NULL,NULL
"793","Rondonopolis","33","468","72","-16.469500","-54.639983",NULL,NULL
"794","Rosario","33","466","0","-2.940041","-44.260022",NULL,NULL
"795","Rosario do Sul","33","479","70","-30.250002","-54.920018",NULL,NULL
"796","Salgueiro","33","472","66","-8.059626","-39.130025",NULL,NULL
"797","Salvador","33","461","69","-12.969972","-38.479987",NULL,NULL
"798","Santa Cruz","33","476","65","-6.219996","-36.029982",NULL,NULL
"799","Santa Cruz Cabralia","33","461","69","-16.280002","-39.029980",NULL,NULL
"800","Santa Cruz do Sul","33","479","70","-29.710035","-52.440040",NULL,NULL
"801","Santa Maria","33","479","70","-29.683319","-53.800008",NULL,NULL
"802","Santa Maria da Vitoria","33","461","69","-13.389998","-44.210025",NULL,NULL
"803","Santa Rosa","33","479","70","-27.869528","-54.459968",NULL,NULL
"804","Santa Vitoria do Palmar","33","479","70","-33.520035","-53.369983",NULL,NULL
"805","Santana do Livramento","33","479","70","-30.880041","-55.530006",NULL,NULL
"806","Santo Angelo","33","479","70","-28.300044","-54.280031",NULL,NULL
"807","Sao Borja","33","479","70","-28.659609","-56.009977",NULL,NULL
"808","Sao Cabriel da Cachoeira","33","459","76","-0.133236","-67.083306",NULL,NULL
"809","Sao Francisco do Sul","33","480","70","-26.239601","-48.599990",NULL,NULL
"810","Sao Gabriel","33","479","70","-30.320024","-54.320028",NULL,NULL
"811","Sao Joao del Rei","33","467","70","-21.130042","-44.249997",NULL,NULL
"812","Sao Lourenco do Sul","33","479","70","-31.369986","-51.980016",NULL,NULL
"813","Sao Luiz Gonzaga","33","479","70","-28.410011","-54.959989",NULL,NULL
"814","Sena Madureira","33","457","76","-9.070003","-68.669979",NULL,NULL
"815","Senhor do Bonfim","33","461","69","-10.449609","-40.190012",NULL,NULL
"816","Serrinha","33","461","69","-11.649587","-39.010007",NULL,NULL
"817","Sete Lagoas","33","467","70","-19.449628","-44.249997",NULL,NULL
"818","Sinop","33","468","0","-11.849989","-55.459985",NULL,NULL
"819","Tefe","33","459","76","-3.360016","-64.699989",NULL,NULL
"820","Teofilo Otoni","33","467","70","-17.870035","-41.500010",NULL,NULL
"821","Timbauba","33","472","66","-7.499608","-35.320025",NULL,NULL
"822","Timon","33","466","0","-5.114999","-42.844966",NULL,NULL
"823","Tocantinopolis","33","483","0","-6.319577","-47.419984",NULL,NULL
"824","Tonantins","33","459","76","-2.872707","-67.801893",NULL,NULL
"825","Tres Lagoas","33","468","71","-20.790011","-51.720006",NULL,NULL
"826","Tubarao","33","480","70","-28.480033","-49.020016",NULL,NULL
"827","Tucano","33","461","69","-10.969629","-38.789994",NULL,NULL
"828","Uba","33","467","70","-21.119604","-42.950025",NULL,NULL
"829","Ubaitaba","33","461","69","-14.300020","-39.330013",NULL,NULL
"830","Uberaba","33","467","70","-19.779996","-47.950004",NULL,NULL
"831","Uberlandia","33","467","70","-18.899998","-48.279984",NULL,NULL
"832","Uruara","33","470","0","-3.829600","-54.029994",NULL,NULL
"833","Uruguaiana","33","479","70","-29.769618","-57.089988",NULL,NULL
"834","Vacaria","33","479","70","-28.499618","-50.940002",NULL,NULL
"835","Valenca","33","461","69","-13.359612","-39.080028",NULL,NULL
"836","Varzea Grande","33","468","72","-15.650015","-56.140021",NULL,NULL
"837","Vitoria da Conquista","33","461","69","-14.850012","-40.839998",NULL,NULL
"838","Volta Redonda","33","475","70","-22.519570","-44.094968",NULL,NULL
"839","Xapeco","33","480","70","-27.100014","-52.640028",NULL,NULL
"840","Xinguara","33","470","0","-7.100614","-49.948047",NULL,NULL
"841","Xique-Xique","33","461","69","-10.820026","-42.730012",NULL,NULL
"842","Bridgetown","34","491","44","13.102003","-59.616527",NULL,NULL
"843","Bandar Seri Begawan","35","496","60","4.883331","114.933284",NULL,NULL
"844","Paro","36","503","0","27.383301","89.516701",NULL,NULL
"845","Punakha","36","506","0","27.633303","89.833303",NULL,NULL
"846","Thimphu","36","503","80","27.472986","89.639014",NULL,NULL
"847","Wangdue Prodrang","36","507","0","27.433296","89.916697",NULL,NULL
"848","Francistown","37","519","81","-21.170040","27.500016",NULL,NULL
"849","Gaborone","37","530","81","-24.646313","25.911948",NULL,NULL
"850","Ghanzi","37","522","81","-21.699620","21.639960",NULL,NULL
"851","Kanye","37","531","81","-24.969601","25.339993",NULL,NULL
"852","Kasane","37","529","81","-17.809573","25.150030",NULL,NULL
"853","Lehututu","37","524","81","-23.969611","21.870024",NULL,NULL
"854","Lobatse","37","530","81","-25.219612","25.680024",NULL,NULL
"855","Lokhwabe","37","524","81","-24.169598","21.830026",NULL,NULL
"856","Mahalapye","37","519","81","-23.100000","26.820006",NULL,NULL
"857","Maun","37","529","81","-19.989595","23.420007",NULL,NULL
"858","Mochudi","37","525","81","-24.377004","26.152003",NULL,NULL
"859","Mohembo","37","529","0","-18.299569","21.800002",NULL,NULL
"860","Molepolole","37","526","81","-24.399972","25.510009",NULL,NULL
"861","Mopipi","37","519","81","-21.179548","24.880021",NULL,NULL
"862","Nata","37","519","81","-20.209478","26.190019",NULL,NULL
"863","Nokaneng","37","529","81","-19.669615","22.270000",NULL,NULL
"864","Palapye","37","519","81","-22.559619","27.130013",NULL,NULL
"865","Serowe","37","519","81","-22.390017","26.710039",NULL,NULL
"866","Tsau","37","529","81","-20.159611","22.459962",NULL,NULL
"867","Tshabong","37","524","81","-26.009486","22.400017",NULL,NULL
"868","Bambari","38","549","115","5.761960","20.667203",NULL,NULL
"869","Bangassou","38","539","115","4.733754","22.816633",NULL,NULL
"870","Bangui","38","536","115","4.366644","18.558288",NULL,NULL
"871","Birao","38","550","115","10.283699","22.783302",NULL,NULL
"872","Bossangoa","38","534","115","6.483724","17.449984",NULL,NULL
"873","Bossembele","38","536","0","5.267003","17.650023",NULL,NULL
"874","Bria","38","538","115","6.533308","21.983299",NULL,NULL
"875","Mbaiki","38","543","115","3.870421","17.999976",NULL,NULL
"876","Mobaye","38","537","115","4.320000","21.179998",NULL,NULL
"877","Ndele","38","535","115","8.409137","20.653044",NULL,NULL
"878","Obo","38","539","115","5.399992","26.500026",NULL,NULL
"879","Ouadda","38","538","115","8.067090","22.400017",NULL,NULL
"880","Yakossi","38","539","0","5.617007","23.316654",NULL,NULL
"881","Zemio","38","539","0","5.033658","25.133287",NULL,NULL
"882","Abbotsford","39","552","109","49.050377","-122.299987",NULL,NULL
"883","Alert","39","558","0","82.483323","-62.249984",NULL,NULL
"884","Amherst","39","556","87","45.816569","-64.216582",NULL,NULL
"885","Antigonish","39","556","85","45.626917","-61.998190",NULL,NULL
"886","Arctic Bay","39","558","0","73.033306","-85.166621",NULL,NULL
"887","Argentia","39","555","0","47.300432","-53.989997",NULL,NULL
"888","Arviat","39","558","0","61.108592","-94.058607",NULL,NULL
"889","Athabasca","39","551","102","54.717034","-113.266585",NULL,NULL
"890","Atikokan","39","559","0","48.750395","-91.616589",NULL,NULL
"891","Attawapiskat","39","559","0","52.916627","-82.433325",NULL,NULL
"892","Baddeck","39","556","0","46.099988","-60.753977",NULL,NULL
"893","Baker Lake","39","558","0","64.316990","-96.016656",NULL,NULL
"894","Banff","39","551","102","51.177999","-115.571923",NULL,NULL
"895","Barrie","39","559","90","44.383762","-79.700004",NULL,NULL
"896","Bathurst","39","554","0","47.599974","-65.649983",NULL,NULL
"897","Bella Bella","39","552","0","52.148405","-128.117281",NULL,NULL
"898","Belleville","39","559","0","44.166670","-77.383349",NULL,NULL
"899","Berens River","39","553","0","52.366557","-97.033313",NULL,NULL
"900","Big Beaver House","39","559","0","52.949984","-89.883284",NULL,NULL
"901","Biggar","39","562","101","52.050400","-107.983290",NULL,NULL
"902","Brandon","39","553","96","49.833275","-99.949982",NULL,NULL
"903","Brochet","39","553","0","57.883223","-101.666596",NULL,NULL
"904","Brockville","39","559","0","44.589280","-75.695313",NULL,NULL
"905","Brooks","39","551","102","50.567054","-111.900002",NULL,NULL
"906","Buchans","39","555","0","48.817032","-56.866591",NULL,NULL
"907","Burns Lake","39","552","109","54.217012","-125.766598",NULL,NULL
"908","Burwash Landing","39","563","0","61.350375","-139.000002",NULL,NULL
"909","Calgary","39","551","102","51.082992","-114.079998",NULL,NULL
"910","Cambridge Bay","39","558","0","69.116956","-105.033315",NULL,NULL
"911","Campbell River","39","552","109","50.017088","-125.249988",NULL,NULL
"912","Camrose","39","551","102","53.016698","-112.816639",NULL,NULL
"913","Cape Dorset","39","558","0","64.312520","-76.538579",NULL,NULL
"914","Cartwright","39","555","0","53.701407","-57.012141",NULL,NULL
"915","Cat Lake","39","559","0","51.717036","-91.799989",NULL,NULL
"916","Channel-Port aux Basques","39","555","84","47.567005","-59.150044",NULL,NULL
"917","Chapleau","39","559","0","47.833707","-83.400010",NULL,NULL
"918","Charlottetown","39","560","87","46.249282","-63.131325",NULL,NULL
"919","Chesterfield Inlet","39","558","0","63.338290","-90.700082",NULL,NULL
"920","Chilliwack","39","552","109","49.166649","-121.949983",NULL,NULL
"921","Churchill","39","553","0","58.765985","-94.165994",NULL,NULL
"922","Churchill Falls","39","555","0","53.526409","-63.980679",NULL,NULL
"923","Cobalt","39","559","0","47.383709","-79.683312",NULL,NULL
"924","Cochrane","39","559","0","49.067017","-81.016564",NULL,NULL
"925","Coral Harbour","39","558","0","64.153770","-83.176587",NULL,NULL
"926","Corner Brook","39","555","84","48.949995","-57.933348",NULL,NULL
"927","Cornwall","39","559","0","45.017057","-74.733330",NULL,NULL
"928","Courtenay","39","552","109","49.683336","-124.999978",NULL,NULL
"929","Cranbrook","39","552","102","49.516679","-115.766665",NULL,NULL
"930","Creston","39","552","109","49.099960","-116.516697",NULL,NULL
"931","Dauphin","39","553","96","51.150016","-100.049950",NULL,NULL
"932","Dawson City","39","563","0","64.066644","-139.416669",NULL,NULL
"933","Dawson Creek","39","552","107","55.766969","-120.233266",NULL,NULL
"934","Dease Lake","39","552","0","58.450346","-130.033288",NULL,NULL
"935","Deer Lake","39","559","0","52.617032","-94.066594",NULL,NULL
"936","Digby","39","556","85","44.622585","-65.760493",NULL,NULL
"937","Doline","39","557","0","65.183346","-123.416663",NULL,NULL
"938","Dryden","39","559","0","49.783329","-92.833336",NULL,NULL
"939","Edmonton","39","551","102","53.550025","-113.499982",NULL,NULL
"940","Edmundston","39","554","0","47.379419","-68.333281",NULL,NULL
"941","Ennadai","39","558","0","61.133283","-100.883336",NULL,NULL
"942","Flin Flon","39","553","100","54.766591","-101.883301",NULL,NULL
"943","Fort Chipewyan","39","551","0","58.717099","-111.149996",NULL,NULL
"944","Fort Good Hope","39","557","0","66.266613","-128.633322",NULL,NULL
"945","Fort McMurray","39","551","0","56.733319","-111.383315",NULL,NULL
"946","Fort McPherson","39","557","105","67.491525","-134.894981",NULL,NULL
"947","Fort Nelson","39","552","0","58.816706","-122.532971",NULL,NULL
"948","Fort Resolution","39","557","0","61.166588","-113.682994",NULL,NULL
"949","Fort Severn","39","559","0","55.983339","-87.649984",NULL,NULL
"950","Fort Simpson","39","557","0","61.849983","-121.333276",NULL,NULL
"951","Fort Smith","39","551","0","60.000019","-111.883336",NULL,NULL
"952","Fort St. John","39","552","107","56.249989","-120.833281",NULL,NULL
"953","Forteau","39","555","0","51.450385","-56.949997",NULL,NULL
"954","Fredericton","39","554","87","45.949998","-66.633308",NULL,NULL
"955","Gander","39","555","0","48.949995","-54.549988",NULL,NULL
"956","Geraldton","39","559","0","49.716641","-86.966640",NULL,NULL
"957","Gillam","39","553","0","56.349983","-94.699967",NULL,NULL
"958","Gimli","39","553","96","50.633303","-96.999981",NULL,NULL
"959","Gjoa Haven","39","558","98","68.633290","-95.916662",NULL,NULL
"960","Grand Prairie","39","551","102","55.166644","-118.799994",NULL,NULL
"961","Grise Fiord","39","558","0","76.441651","-82.949986",NULL,NULL
"962","Halifax","39","556","85","44.650025","-63.600005",NULL,NULL
"963","Hall Beach","39","558","0","68.767467","-81.236083",NULL,NULL
"964","Hamilton","39","559","0","43.249982","-79.829996",NULL,NULL
"965","Happy Valley - Goose Bay","39","555","88","53.299988","-60.299999",NULL,NULL
"966","Hay River","39","557","0","60.849992","-115.700003",NULL,NULL
"967","Hearst","39","559","91","49.700492","-83.666583",NULL,NULL
"968","Hinton","39","551","102","53.399982","-117.583350",NULL,NULL
"969","Holman","39","557","0","70.733369","-117.749981",NULL,NULL
"970","Hopedale","39","555","0","55.449960","-60.216671",NULL,NULL
"971","Hudson Bay","39","562","100","52.850429","-102.383296",NULL,NULL
"972","Igloolik","39","558","0","69.256535","-81.793592",NULL,NULL
"973","Inuvik","39","557","105","68.349974","-133.699989",NULL,NULL
"974","Iqaluit","39","558","93","63.750459","-68.500192",NULL,NULL
"975","Island Lake","39","553","0","53.966588","-94.766578",NULL,NULL
"976","Jasper","39","551","102","52.883321","-118.083371",NULL,NULL
"977","Kamloops","39","552","109","50.666661","-120.333286",NULL,NULL
"978","Kapuskasing","39","559","91","49.416685","-82.433325",NULL,NULL
"979","Kelowna","39","552","109","49.899989","-119.483312",NULL,NULL
"980","Kenora","39","559","0","49.766690","-94.466648",NULL,NULL
"981","Kimmirut","39","558","0","62.850025","-69.883316",NULL,NULL
"982","Kindersley","39","562","101","51.466973","-109.133298",NULL,NULL
"983","Kingston","39","559","90","44.233720","-76.483301",NULL,NULL
"984","Kitchener","39","559","90","43.449995","-80.500007",NULL,NULL
"985","Kugluktuk","39","558","98","67.798663","-115.125350",NULL,NULL
"986","La Ronge","39","562","100","55.100008","-105.300017",NULL,NULL
"987","La Scie","39","555","0","49.967013","-55.583000",NULL,NULL
"988","Labrador City","39","555","88","52.941431","-66.915874",NULL,NULL
"989","Lac La Biche","39","551","102","54.771940","-111.964701",NULL,NULL
"990","Lake Louise","39","551","0","51.433694","-116.183281",NULL,NULL
"991","Lansdowne House","39","559","0","52.216643","-87.883328",NULL,NULL
"992","Lethbridge","39","551","102","49.700492","-112.833278",NULL,NULL
"993","Lillooet","39","552","0","50.683714","-121.933266",NULL,NULL
"994","Little Current","39","559","0","45.967025","-81.933330",NULL,NULL
"995","Liverpool","39","556","0","44.039959","-64.720014",NULL,NULL
"996","London","39","559","90","42.969999","-81.249987",NULL,NULL
"997","Lutselke","39","557","0","62.400053","-110.733329",NULL,NULL
"998","Lynn Lake","39","553","0","56.850030","-101.049967",NULL,NULL
"999","Marathon","39","559","91","48.750395","-86.366651",NULL,NULL
"1000","Meadow Lake","39","562","101","54.130118","-108.434736",NULL,NULL
"1001","Meander River","39","551","0","59.033282","-117.682982",NULL,NULL
"1002","Medicine Hat","39","551","102","50.033314","-110.683332",NULL,NULL
"1003","Melville","39","562","100","50.933311","-102.799989",NULL,NULL
"1004","Moncton","39","554","87","46.083349","-64.766677",NULL,NULL
"1005","Moose Jaw","39","562","100","50.399984","-105.550002",NULL,NULL
"1006","Moosonee","39","559","0","51.280602","-80.657981",NULL,NULL
"1007","Nain","39","555","0","56.547351","-61.686045",NULL,NULL
"1008","Nanaimo","39","552","109","49.146020","-123.934291",NULL,NULL
"1009","Nelson","39","552","109","49.483658","-117.283291",NULL,NULL
"1010","Nelson House","39","553","0","55.800456","-98.850023",NULL,NULL
"1011","New Glasgow","39","556","85","45.583276","-62.633319",NULL,NULL
"1012","New Liskeard","39","559","0","47.500006","-79.666647",NULL,NULL
"1013","Nipigon","39","559","0","49.017046","-88.249973",NULL,NULL
"1014","Norman Wells","39","557","105","65.283727","-126.849968",NULL,NULL
"1015","North Battleford","39","562","101","52.766636","-108.283349",NULL,NULL
"1016","North Bay","39","559","90","46.300002","-79.449993",NULL,NULL
"1017","Norway House","39","553","0","53.966588","-97.833290",NULL,NULL
"1018","Orangeville","39","559","90","43.917073","-80.083339",NULL,NULL
"1019","Orillia","39","559","90","44.599977","-79.416662",NULL,NULL
"1020","Oshawa","39","559","90","43.879995","-78.849978",NULL,NULL
"1021","Ottawa","39","559","0","45.416697","-75.700015",NULL,NULL
"1022","Owen Sound","39","559","90","44.566645","-80.849985",NULL,NULL
"1023","Oxford House","39","553","0","54.950404","-95.266599",NULL,NULL
"1024","Pangnirtung","39","558","94","66.133313","-65.750028",NULL,NULL
"1025","Parry Sound","39","559","90","45.333704","-80.033007",NULL,NULL
"1026","Paulatuk","39","557","0","69.383322","-123.983321",NULL,NULL
"1027","Peace River","39","551","102","56.233323","-117.283291",NULL,NULL
"1028","Penticton","39","552","109","49.500375","-119.583280",NULL,NULL
"1029","Peterborough","39","559","90","44.299969","-78.333265",NULL,NULL
"1030","Pond Inlet","39","558","0","72.684981","-78.000056",NULL,NULL
"1031","Port Burwell","39","555","0","60.266462","-64.741098",NULL,NULL
"1032","Port Hardy","39","552","0","50.717071","-127.499980",NULL,NULL
"1033","Port Hope Simpson","39","555","0","52.533291","-56.300011",NULL,NULL
"1034","Powell River","39","552","109","49.883711","-124.549979",NULL,NULL
"1035","Prince Albert","39","562","100","53.200020","-105.749990",NULL,NULL
"1036","Prince George","39","552","109","53.916669","-122.766651",NULL,NULL
"1037","Prince Rupert","39","552","109","54.316670","-130.329988",NULL,NULL
"1038","Pukatawagan","39","553","0","55.733276","-101.316617",NULL,NULL
"1039","Quesnel","39","552","109","52.983677","-122.483284",NULL,NULL
"1040","Rankin Inlet","39","558","93","62.816668","-92.095319",NULL,NULL
"1041","Red Deer","39","551","102","52.266640","-113.800041",NULL,NULL
"1042","Red Lake","39","559","0","51.033692","-93.833301",NULL,NULL
"1043","Regina","39","562","100","50.450033","-104.617010",NULL,NULL
"1044","Repulse Bay","39","558","0","66.529467","-86.282935",NULL,NULL
"1045","Resolute","39","558","0","74.683334","-94.900006",NULL,NULL
"1046","Revelstoke","39","552","109","51.000464","-118.183339",NULL,NULL
"1047","Rigolet","39","555","0","54.176601","-58.447322",NULL,NULL
"1048","Saint John","39","554","87","45.267042","-66.076675",NULL,NULL
"1049","Sandspit","39","552","0","53.240405","-131.833281",NULL,NULL
"1050","Sarnia","39","559","90","42.966640","-82.399968",NULL,NULL
"1051","Saskatoon","39","562","101","52.170031","-106.669985",NULL,NULL
"1052","Selkirk","39","553","96","50.150025","-96.883322",NULL,NULL
"1053","Shamattawa","39","553","0","55.850375","-92.083279",NULL,NULL
"1054","Shelburne","39","556","85","43.765609","-65.319357",NULL,NULL
"1055","Sioux Lookout","39","559","0","50.262964","-91.916648",NULL,NULL
"1056","Smithers","39","552","109","54.766591","-127.166590",NULL,NULL
"1057","St. Anthony","39","555","0","51.383749","-55.599950",NULL,NULL
"1058","St. John's","39","555","84","47.584988","-52.681007",NULL,NULL
"1059","Steinbach","39","553","96","49.517093","-96.683308",NULL,NULL
"1060","Stephenville","39","555","84","48.550407","-58.566565",NULL,NULL
"1061","Stettler","39","551","102","52.332967","-112.683288",NULL,NULL
"1062","Stony Rapids","39","562","0","59.266575","-105.833266",NULL,NULL
"1063","Sudbury","39","559","90","46.499990","-80.966645",NULL,NULL
"1064","Swift Current","39","562","101","50.283738","-107.766611",NULL,NULL
"1065","Sydney","39","556","0","46.066115","-60.179981",NULL,NULL
"1066","Taloyoak","39","558","0","69.533313","-93.533320",NULL,NULL
"1067","Terrace","39","552","109","54.499992","-128.583325",NULL,NULL
"1068","The Pas","39","553","100","53.816623","-101.233315",NULL,NULL
"1069","Thessalon","39","559","90","46.249979","-83.550001",NULL,NULL
"1070","Thompson","39","553","96","55.749942","-97.866621",NULL,NULL
"1071","Thunder Bay","39","559","92","48.446150","-89.274975",NULL,NULL
"1072","Timmins","39","559","91","48.466588","-81.333315",NULL,NULL
"1073","Tofino","39","552","109","49.152071","-125.903149",NULL,NULL
"1074","Toronto","39","559","90","43.699980","-79.420021",NULL,NULL
"1075","Trepassey","39","555","0","46.736978","-53.363291",NULL,NULL
"1076","Trout River","39","555","0","49.483658","-58.116644",NULL,NULL
"1077","Tsiigehtchic","39","557","0","67.433286","-133.749986",NULL,NULL
"1078","Tuktoyaktuk","39","557","0","69.454775","-133.049201",NULL,NULL
"1079","Uranium City","39","562","0","59.566557","-108.616585",NULL,NULL
"1080","Vancouver","39","552","109","49.273417","-123.121644",NULL,NULL
"1081","Vegreville","39","551","102","53.499976","-112.049967",NULL,NULL
"1082","Victoria","39","552","109","48.433283","-123.350001",NULL,NULL
"1083","Watson Lake","39","563","0","60.116626","-128.800030",NULL,NULL
"1084","Wawa","39","559","0","48.000415","-84.783337",NULL,NULL
"1085","Wetaskiwin","39","551","102","52.966572","-113.383297",NULL,NULL
"1086","Weyburn","39","562","100","49.666567","-103.850002",NULL,NULL
"1087","Whitehorse","39","563","110","60.716719","-135.049984",NULL,NULL
"1088","Wiarton","39","559","0","44.733689","-81.133301",NULL,NULL
"1089","Williams Lake","39","552","109","52.116650","-122.149997",NULL,NULL
"1090","Windsor","39","559","90","42.333293","-83.033340",NULL,NULL
"1091","Winnipeg","39","553","96","49.882987","-97.165992",NULL,NULL
"1092","Yarmouth","39","556","85","43.830794","-66.112581",NULL,NULL
"1093","Yellowknife","39","557","104","62.442014","-114.396981",NULL,NULL
"1094","Yorkton","39","562","100","51.217066","-102.466547",NULL,NULL
"1095","Aarau","40","564","117","47.390004","8.034004",NULL,NULL
"1096","Altdorf","40","585","117","46.879002","8.638003",NULL,NULL
"1097","Appenzell","40","565","117","47.333304","9.416701",NULL,NULL
"1098","Basel","40","569","117","47.580389","7.590017",NULL,NULL
"1099","Bellinzona","40","584","117","46.197000","9.019999",NULL,NULL
"1100","Bern","40","567","117","46.916683","7.466975",NULL,NULL
"1101","Biel","40","567","117","47.166590","7.250038",NULL,NULL
"1102","Delemont","40","574","117","47.369997","7.344999",NULL,NULL
"1103","Frauenfeld","40","583","117","47.567997","9.108001",NULL,NULL
"1104","Fribourg","40","570","117","46.800000","7.149997",NULL,NULL
"1105","Glarus","40","572","117","47.050002","9.066700",NULL,NULL
"1106","Herisau","40","566","117","47.383299","9.283302",NULL,NULL
"1107","Lausanne","40","586","117","46.530427","6.650023",NULL,NULL
"1108","Liestal","40","568","117","47.483001","7.737003",NULL,NULL
"1109","Lugano","40","584","117","46.000382","8.966677",NULL,NULL
"1110","Luzern","40","575","117","47.050421","8.280001",NULL,NULL
"1111","Saint Gallen","40","579","117","47.422998","9.361999",NULL,NULL
"1112","Sarnen","40","578","117","46.899000","8.243002",NULL,NULL
"1113","Schaffhausen","40","580","117","47.706003","8.632999",NULL,NULL
"1114","Schwyz","40","582","117","47.019996","8.648002",NULL,NULL
"1115","Sion","40","587","117","46.239003","7.353999",NULL,NULL
"1116","Solothurn","40","581","117","47.212002","7.536997",NULL,NULL
"1117","Stans","40","577","117","46.950003","8.383303",NULL,NULL
"1118","Zug","40","588","117","47.178999","8.487001",NULL,NULL
"1119","Ancud","41","598","120","-41.869965","-73.829974",NULL,NULL
"1120","Antofagasta","41","591","120","-23.649992","-70.400003",NULL,NULL
"1121","Arica","41","592","120","-18.500022","-70.289984",NULL,NULL
"1122","Calama","41","591","120","-22.450013","-68.919990",NULL,NULL
"1123","Calbuco","41","598","120","-41.752201","-73.141591",NULL,NULL
"1124","Caldera","41","594","0","-27.069628","-70.830028",NULL,NULL
"1125","Castro","41","598","120","-42.480762","-73.762334",NULL,NULL
"1126","Cauquenes","41","601","120","-35.960041","-72.319989",NULL,NULL
"1127","Chanaral","41","594","0","-29.030025","-71.430018",NULL,NULL
"1128","Chonchi","41","598","0","-42.610023","-73.809950",NULL,NULL
"1129","Chuquicamata","41","591","0","-22.319996","-68.929989",NULL,NULL
"1130","Cochrane","41","590","0","-47.266276","-72.549949",NULL,NULL
"1131","Combarbala","41","596","0","-31.180023","-70.999992",NULL,NULL
"1132","Constitucion","41","601","120","-35.329589","-72.419983",NULL,NULL
"1133","Copiapo","41","594","120","-27.359998","-70.339981",NULL,NULL
"1134","Coquimbo","41","596","120","-29.952915","-71.343615",NULL,NULL
"1135","Curico","41","601","120","-34.979998","-71.240029",NULL,NULL
"1136","Diego de Almagro","41","594","120","-26.369619","-70.049998",NULL,NULL
"1137","Huasco","41","594","0","-28.469594","-71.220005",NULL,NULL
"1138","Illapel","41","596","120","-31.629608","-71.170008",NULL,NULL
"1139","La Ligua","41","604","120","-32.459997","-71.240029",NULL,NULL
"1140","La Serena","41","596","120","-29.899998","-71.249977",NULL,NULL
"1141","Lagunas","41","603","0","-20.982868","-69.683302",NULL,NULL
"1142","Linares","41","601","120","-35.839997","-71.589982",NULL,NULL
"1143","Los Andes","41","604","120","-32.829587","-70.599991",NULL,NULL
"1144","Los Lagos","41","599","0","-39.849520","-72.829984",NULL,NULL
"1145","Maria Elena","41","591","0","-22.350020","-69.669996",NULL,NULL
"1146","Mejillones","41","591","0","-23.100000","-70.450000",NULL,NULL
"1147","Osorno","41","598","120","-40.569993","-73.160015",NULL,NULL
"1148","Ovalle","41","596","120","-30.590033","-71.200057",NULL,NULL
"1149","Pichilemu","41","597","0","-34.380035","-71.999983",NULL,NULL
"1150","Puerto Aisen","41","590","0","-45.399930","-72.700018",NULL,NULL
"1151","Puerto Montt","41","598","120","-41.469989","-72.929978",NULL,NULL
"1152","Puerto Varas","41","598","120","-41.329998","-72.990000",NULL,NULL
"1153","Quellon","41","598","0","-43.099606","-73.599988",NULL,NULL
"1154","Quillota","41","604","120","-32.879971","-71.260002",NULL,NULL
"1155","Rancagua","41","597","120","-34.170022","-70.739982",NULL,NULL
"1156","Salamanca","41","596","120","-31.779573","-70.979967",NULL,NULL
"1157","San Antonio","41","604","120","-33.599514","-71.609981",NULL,NULL
"1158","San Felipe","41","604","120","-32.750005","-70.720009",NULL,NULL
"1159","San Fernando","41","597","0","-34.580022","-70.989967",NULL,NULL
"1160","Talca","41","601","120","-35.455008","-71.670003",NULL,NULL
"1161","Taltal","41","591","120","-25.400014","-70.470024",NULL,NULL
"1162","Tierra Amarilla","41","594","0","-27.480042","-70.279984",NULL,NULL
"1163","Toconao","41","591","0","-23.182889","-68.016634",NULL,NULL
"1164","Tocopilla","41","591","120","-22.090035","-70.189990",NULL,NULL
"1165","Vallenar","41","594","120","-28.570002","-70.760007",NULL,NULL
"1166","Valparaiso","41","604","70","-33.047764","-71.621014",NULL,NULL
"1167","Vicuna","41","596","120","-30.029499","-70.739982",NULL,NULL
"1168","Vina del Mar","41","604","120","-33.029988","-71.539985",NULL,NULL
"1169","Anda","42","612","0","46.399996","125.320040",NULL,NULL
"1170","Angangxi","42","612","0","47.160053","123.800030",NULL,NULL
"1171","Ankang","42","631","0","32.679981","109.020002",NULL,NULL
"1172","Anlu","42","621","0","31.269989","113.670002",NULL,NULL
"1173","Anqing","42","616","124","30.499959","117.050002",NULL,NULL
"1174","Anshan","42","610","0","41.115021","122.940030",NULL,NULL
"1175","Anshun","42","628","0","26.250399","105.930009",NULL,NULL
"1176","Anxi","42","632","0","40.500434","95.799982",NULL,NULL
"1177","Anyang","42","620","124","36.079980","114.350012",NULL,NULL
"1178","Baicheng","42","611","0","45.620018","122.820038",NULL,NULL
"1179","Baiquan","42","612","0","47.601835","126.081854",NULL,NULL
"1180","Baishan","42","611","0","41.900012","126.429998",NULL,NULL
"1181","Baoding","42","607","124","38.870430","115.480021",NULL,NULL
"1182","Baoji","42","631","0","34.380006","107.149987",NULL,NULL
"1183","Baoshan","42","629","0","25.119977","99.150010",NULL,NULL
"1184","Beian","42","612","0","48.239005","126.482036",NULL,NULL
"1185","Beihai","42","624","0","21.480406","109.100048",NULL,NULL
"1186","Beijing","42","605","0","39.928892","116.388286",NULL,NULL
"1187","Beipiao","42","610","0","41.810018","120.760009",NULL,NULL
"1188","Bengbu","42","616","124","32.949990","117.330037",NULL,NULL
"1189","Benxi","42","610","0","41.330383","123.750007",NULL,NULL
"1190","Boli","42","612","0","45.756366","130.575947",NULL,NULL
"1191","Bose","42","624","0","23.899716","106.613327",NULL,NULL
"1192","Buizhou","42","619","124","37.370392","118.020021",NULL,NULL
"1193","Cangzhou","42","607","124","38.320386","116.870013",NULL,NULL
"1194","Chamdo","42","630","0","31.166688","97.233279",NULL,NULL
"1195","Changchun","42","611","0","43.865009","125.339987",NULL,NULL
"1196","Changde","42","622","0","29.029997","111.680046",NULL,NULL
"1197","Changling","42","611","0","44.269997","123.989992",NULL,NULL
"1198","Changping","42","605","0","40.224766","116.194396",NULL,NULL
"1199","Changsha","42","622","0","28.199970","112.969993",NULL,NULL
"1200","Changting","42","617","0","25.866986","116.316662",NULL,NULL
"1201","Changzhi","42","608","0","36.183875","113.105282",NULL,NULL
"1202","Changzhou","42","614","124","31.779984","119.969979",NULL,NULL
"1203","Chaoyang","42","610","0","41.550421","120.419978",NULL,NULL
"1204","Chaozhou","42","623","124","23.680039","116.630028",NULL,NULL
"1205","Chengde","42","607","0","40.960380","117.930000",NULL,NULL
"1206","Chengdu","42","627","0","30.670000","104.070019",NULL,NULL
"1207","Chenzhou","42","622","0","25.800426","113.030093",NULL,NULL
"1208","Chongqing","42","626","0","29.564977","106.594982",NULL,NULL
"1209","Chuxiong","42","629","0","25.036416","101.545574",NULL,NULL
"1210","Daan","42","611","0","45.499999","124.299999",NULL,NULL
"1211","Dali","42","629","0","25.700019","100.179973",NULL,NULL
"1212","Dalian","42","610","124","38.922838","121.629831",NULL,NULL
"1213","Dandong","42","610","0","40.143608","124.393585",NULL,NULL
"1214","Danjiangkou","42","621","0","32.520016","111.500005",NULL,NULL
"1215","Daqing","42","612","0","46.579959","125.000008",NULL,NULL
"1216","Datong","42","608","124","40.080020","113.299999",NULL,NULL
"1217","Dengzhou","42","620","0","32.680368","112.080022",NULL,NULL
"1218","Deyang","42","627","0","31.133331","104.399974",NULL,NULL
"1219","Dezhou","42","619","124","37.450413","116.300022",NULL,NULL
"1220","Dingzhou","42","607","124","38.500426","114.999998",NULL,NULL
"1221","Dongguan","42","623","0","23.048889","113.744722",NULL,NULL
"1222","Dulan","42","632","0","36.166590","98.266601",NULL,NULL
"1223","Dunhua","42","611","0","43.350492","128.220018",NULL,NULL
"1224","Dunhuang","42","632","0","40.142678","94.662015",NULL,NULL
"1225","Fengcheng","42","618","124","28.200409","115.770029",NULL,NULL
"1226","Fengjie","42","626","0","31.050442","109.516664",NULL,NULL
"1227","Foshan","42","623","0","23.030053","113.120010",NULL,NULL
"1228","Fuan","42","617","124","27.070426","119.620026",NULL,NULL
"1229","Fujin","42","612","0","47.270382","132.019993",NULL,NULL
"1230","Fulin","42","627","0","29.350003","102.716717",NULL,NULL
"1231","Fushun","42","610","0","41.865389","123.870000",NULL,NULL
"1232","Fuxin","42","610","0","42.010471","121.660005",NULL,NULL
"1233","Fuyang","42","615","124","30.053333","119.951944",NULL,NULL
"1234","Fuyu","42","611","0","45.180380","124.820019",NULL,NULL
"1235","Fuzhou","42","617","124","26.079996","119.300046",NULL,NULL
"1236","Gannan","42","612","0","47.920368","123.510022",NULL,NULL
"1237","Ganzhou","42","618","0","25.919980","114.950027",NULL,NULL
"1238","Gar","42","630","0","32.200398","79.983324",NULL,NULL
"1239","Gejiu","42","629","0","23.379980","103.150076",NULL,NULL
"1240","Golmud","42","632","0","36.416626","94.883345",NULL,NULL
"1241","Guangshui","42","621","124","31.620381","114.000008",NULL,NULL
"1242","Guangyuan","42","627","0","32.429996","105.870013",NULL,NULL
"1243","Guangzhou","42","623","0","23.144981","113.325010",NULL,NULL
"1244","Guide","42","632","0","36.045098","101.424186",NULL,NULL
"1245","Guilin","42","624","0","25.279993","110.280028",NULL,NULL
"1246","Guiyang","42","628","0","26.580043","106.720039",NULL,NULL
"1247","Gyangze","42","630","0","28.950002","89.633330",NULL,NULL
"1248","Haikou","42","625","0","20.050002","110.320026",NULL,NULL
"1249","Hailun","42","612","0","47.450423","126.930019",NULL,NULL
"1250","Hancheng","42","631","0","35.470431","110.429993",NULL,NULL
"1251","Handan","42","607","124","36.579975","114.479978",NULL,NULL
"1252","Hangu","42","606","124","39.231958","117.776986",NULL,NULL
"1253","Hangzhou","42","615","124","30.249974","120.170019",NULL,NULL
"1254","Hanzhong","42","631","0","33.129979","107.029994",NULL,NULL
"1255","Harbin","42","612","0","45.749984","126.649985",NULL,NULL
"1256","Hebi","42","620","124","35.950375","114.220046",NULL,NULL
"1257","Hechi","42","624","0","23.096535","109.609113",NULL,NULL
"1258","Hefei","42","616","124","31.850031","117.280014",NULL,NULL
"1259","Hegang","42","612","0","47.400012","130.370016",NULL,NULL
"1260","Heihe","42","612","0","50.250019","127.446009",NULL,NULL
"1261","Helong","42","611","0","42.534754","129.004363",NULL,NULL
"1262","Hengshui","42","607","124","37.719983","115.700007",NULL,NULL
"1263","Hengyang","42","622","0","26.880025","112.590016",NULL,NULL
"1264","Heyuan","42","623","0","23.730424","114.680018",NULL,NULL
"1265","Heze","42","619","124","35.229980","115.450048",NULL,NULL
"1266","Houma","42","608","0","35.619982","111.209997",NULL,NULL
"1267","Huaibei","42","616","124","33.950368","116.750021",NULL,NULL
"1268","Huainan","42","616","124","32.629984","116.979981",NULL,NULL
"1269","Huaiyin","42","614","124","33.580003","119.029985",NULL,NULL
"1270","Huanghua","42","607","0","38.370434","117.330037",NULL,NULL
"1271","Huangshi","42","621","124","30.220002","115.099992",NULL,NULL
"1272","Huangyan","42","615","124","28.650020","121.250004",NULL,NULL
"1273","Huanren","42","610","0","41.256331","125.345982",NULL,NULL
"1274","Huinan","42","611","0","42.622940","126.261430",NULL,NULL
"1275","Huize","42","629","0","26.350419","103.416674",NULL,NULL
"1276","Huizhou","42","623","0","23.079972","114.399983",NULL,NULL
"1277","Hulan Ergi","42","612","0","47.209972","123.610015",NULL,NULL
"1278","Hulin","42","612","0","45.769027","132.992233",NULL,NULL
"1279","Huzhou","42","615","124","30.870375","120.099997",NULL,NULL
"1280","Jiamusi","42","612","0","46.830021","130.350017",NULL,NULL
"1281","Jian","42","618","124","27.130423","114.999998",NULL,NULL
"1282","Jiangmen","42","623","0","22.580390","113.080012",NULL,NULL
"1283","Jianmen","42","621","0","30.650053","113.160007",NULL,NULL
"1284","Jiaohe","42","611","0","43.716284","127.345963",NULL,NULL
"1285","Jiaojing","42","615","124","28.680406","121.449992",NULL,NULL
"1286","Jiaozuo","42","620","124","35.250005","113.220004",NULL,NULL
"1287","Jiaxing","42","615","124","30.770407","120.749983",NULL,NULL
"1288","Jiayuguan","42","632","125","39.820010","98.299984",NULL,NULL
"1289","Jieshou","42","616","124","33.250437","115.350003",NULL,NULL
"1290","Jiexiu","42","608","0","37.040025","111.899981",NULL,NULL
"1291","Jilin","42","611","0","43.849971","126.550043",NULL,NULL
"1292","Jinan","42","619","124","36.674982","116.995019",NULL,NULL
"1293","Jinchang","42","632","0","38.495698","102.173908",NULL,NULL
"1294","Jincheng","42","608","0","35.500377","112.830002",NULL,NULL
"1295","Jingdezhen","42","618","124","29.270421","117.180020",NULL,NULL
"1296","Jingmen","42","621","0","31.030391","112.100020",NULL,NULL
"1297","Jinhua","42","615","124","29.120043","119.649999",NULL,NULL
"1298","Jinshi","42","622","0","29.632105","111.851715",NULL,NULL
"1299","Jinxi","42","610","0","40.750341","120.829978",NULL,NULL
"1300","Jinzhou","42","610","0","41.120370","121.100039",NULL,NULL
"1301","Jiujiang","42","618","124","29.729980","115.980042",NULL,NULL
"1302","Jiutai","42","611","0","44.144733","125.844349",NULL,NULL
"1303","Jixi","42","612","0","45.299960","130.970031",NULL,NULL
"1304","Jyekundo","42","632","0","33.016627","96.733310",NULL,NULL
"1305","Kaifeng","42","620","124","34.850003","114.350012",NULL,NULL
"1306","Keshan","42","612","0","48.026331","125.865950",NULL,NULL
"1307","Kunming","42","629","0","25.069980","102.679975",NULL,NULL
"1308","Laiwu","42","619","124","36.200412","117.660043",NULL,NULL
"1309","Laiyang","42","619","124","36.968401","120.708435",NULL,NULL
"1310","Langfang","42","607","124","39.520364","116.679999",NULL,NULL
"1311","Langzhong","42","627","0","31.575940","105.965563",NULL,NULL
"1312","Lanxi","42","612","0","46.266361","126.275951",NULL,NULL
"1313","Lanzhou","42","632","0","36.056028","103.792000",NULL,NULL
"1314","Leshan","42","627","0","29.567096","103.733348",NULL,NULL
"1315","Lhasa","42","630","0","29.645024","91.100010",NULL,NULL
"1316","Lianxian","42","623","0","24.781522","112.382535",NULL,NULL
"1317","Lianyungang","42","614","0","34.600432","119.170028",NULL,NULL
"1318","Liaocheng","42","619","124","36.430424","115.970017",NULL,NULL
"1319","Liaoyang","42","610","0","41.279998","123.180016",NULL,NULL
"1320","Liaoyuan","42","611","0","42.899977","125.129974",NULL,NULL
"1321","Lijiang","42","629","0","26.800004","100.266582",NULL,NULL
"1322","Linchuan","42","618","0","27.970346","116.360019",NULL,NULL
"1323","Linfen","42","608","0","36.080342","111.520004",NULL,NULL
"1324","Lingyuan","42","610","0","41.240000","119.401111",NULL,NULL
"1325","Linhai","42","615","124","28.850008","121.119987",NULL,NULL
"1326","Linjiang","42","611","0","41.836347","126.935962",NULL,NULL
"1327","Linkou","42","612","0","45.281899","130.251884",NULL,NULL
"1328","Linqing","42","607","124","36.850398","115.680009",NULL,NULL
"1329","Linxia","42","632","0","35.600009","103.200047",NULL,NULL
"1330","Linyi","42","619","124","35.079989","118.329976",NULL,NULL
"1331","Lishui","42","615","124","28.450420","119.900009",NULL,NULL
"1332","Liuhe","42","611","0","42.278852","125.717329",NULL,NULL
"1333","Liuzhou","42","624","0","24.280002","109.250013",NULL,NULL
"1334","Longjiang","42","612","0","47.340404","123.180016",NULL,NULL
"1335","Longxi","42","632","0","35.047640","104.639442",NULL,NULL
"1336","Longyan","42","617","0","25.180413","117.030004",NULL,NULL
"1337","Luan","42","616","0","31.750348","116.480011",NULL,NULL
"1338","Luohe","42","620","124","33.570004","114.029980",NULL,NULL
"1339","Luoyang","42","620","0","34.679988","112.470075",NULL,NULL
"1340","Lupanshui","42","628","0","26.594435","104.833332",NULL,NULL
"1341","Luzhou","42","627","0","28.879980","105.380017",NULL,NULL
"1342","Maanshan","42","616","0","31.730400","118.480044",NULL,NULL
"1343","Macheng","42","621","124","31.179995","115.030022",NULL,NULL
"1344","Maoming","42","623","0","21.920405","110.870018",NULL,NULL
"1345","Meizhou","42","623","124","24.300492","116.119982",NULL,NULL
"1346","Mengzi","42","629","0","23.361945","103.406132",NULL,NULL
"1347","Mianyang","42","627","0","31.469977","104.769977",NULL,NULL
"1348","Minxian","42","632","0","34.436178","104.030590",NULL,NULL
"1349","Mishan","42","612","0","45.550384","131.880002",NULL,NULL
"1350","Mudangiang","42","612","0","44.575017","129.590012",NULL,NULL
"1351","Nagchu","42","630","0","31.480002","92.050030",NULL,NULL
"1352","Nancha","42","612","0","47.136359","129.285948",NULL,NULL
"1353","Nanchang","42","618","124","28.679992","115.879996",NULL,NULL
"1354","Nanchong","42","627","0","30.780433","106.129997",NULL,NULL
"1355","Nangong","42","607","124","37.370392","115.370002",NULL,NULL
"1356","Nanjing","42","614","124","32.050019","118.779974",NULL,NULL
"1357","Nanning","42","624","0","22.819988","108.320044",NULL,NULL
"1358","Nanping","42","617","124","26.630376","118.169986",NULL,NULL
"1359","Nantong","42","614","124","32.030382","120.825017",NULL,NULL
"1360","Nanyang","42","620","0","33.000400","112.530020",NULL,NULL
"1361","Nehe","42","612","0","48.489998","124.880015",NULL,NULL
"1362","Neijiang","42","627","0","29.580377","105.050011",NULL,NULL
"1363","Nenjiang","42","612","0","49.179981","125.230020",NULL,NULL
"1364","Ninde","42","617","124","26.680373","119.530058",NULL,NULL
"1365","Ningan","42","612","0","44.331337","129.465937",NULL,NULL
"1366","Ningbo","42","615","124","29.879971","121.550038",NULL,NULL
"1367","Nongan","42","611","0","44.430400","125.170075",NULL,NULL
"1368","Nyingchi","42","630","0","29.533299","94.416707",NULL,NULL
"1369","Panshi","42","611","0","42.942636","126.056119",NULL,NULL
"1370","Panzhihua","42","627","0","26.549993","101.730007",NULL,NULL
"1371","Pingdingshan","42","620","0","33.730408","113.299999",NULL,NULL
"1372","Pingdu","42","619","124","36.790376","119.940007",NULL,NULL
"1373","Pingliang","42","632","0","35.530375","106.680093",NULL,NULL
"1374","Pingxiang","42","618","0","27.620005","113.850043",NULL,NULL
"1375","Pingyi","42","619","124","35.510428","117.620045",NULL,NULL
"1376","Puqi","42","621","0","29.720420","113.880015",NULL,NULL
"1377","Putian","42","617","124","25.430346","119.020011",NULL,NULL
"1378","Puyang","42","620","124","35.700391","114.980000",NULL,NULL
"1379","Qingan","42","612","0","46.871853","127.511844",NULL,NULL
"1380","Qingdao","42","619","124","36.089979","120.330009",NULL,NULL
"1381","Qinggang","42","612","0","46.690030","126.100044",NULL,NULL
"1382","Qingyuan","42","623","0","23.700400","113.030093",NULL,NULL
"1383","Qinhuangdao","42","607","0","39.930365","119.620026",NULL,NULL
"1384","Qinzhou","42","624","0","21.950429","108.619974",NULL,NULL
"1385","Qiqihar","42","612","0","47.344977","123.989992",NULL,NULL
"1386","Qitaihe","42","612","0","45.799981","130.850039",NULL,NULL
"1387","Quanzhou","42","617","124","24.900016","118.579987",NULL,NULL
"1388","Quzhou","42","615","124","28.970440","118.869995",NULL,NULL
"1389","Rizhao","42","619","124","35.430381","119.450011",NULL,NULL
"1390","Rongzhag","42","627","0","30.950448","101.916663",NULL,NULL
"1391","Sanming","42","617","124","26.229987","117.580048",NULL,NULL
"1392","Sanya","42","625","0","18.259105","109.504032",NULL,NULL
"1393","Shanghai","42","613","124","31.216452","121.436505",NULL,NULL
"1394","Shangqiu","42","620","124","34.450415","115.650036",NULL,NULL
"1395","Shangrao","42","618","124","28.470393","117.969998",NULL,NULL
"1396","Shangzhi","42","612","0","45.220430","127.970008",NULL,NULL
"1397","Shantou","42","623","124","23.370006","116.670026",NULL,NULL
"1398","Shanxian","42","619","124","34.790420","116.079984",NULL,NULL
"1399","Shaoguan","42","623","0","24.799971","113.579982",NULL,NULL
"1400","Shaowu","42","617","124","27.300387","117.500001",NULL,NULL
"1401","Shaoxing","42","615","124","30.000377","120.570046",NULL,NULL
"1402","Shaoyang","42","622","0","26.999991","111.200075",NULL,NULL
"1403","Shashi","42","621","0","30.320021","112.229987",NULL,NULL
"1404","Shenyeng","42","610","0","41.804979","123.449974",NULL,NULL
"1405","Shenzhen","42","623","0","22.552371","114.122123",NULL,NULL
"1406","Shijianzhuang","42","607","124","38.050015","114.479978",NULL,NULL
"1407","Shishou","42","621","0","29.700395","112.400002",NULL,NULL
"1408","Shiyan","42","621","0","32.570039","110.779998",NULL,NULL
"1409","Shuangcheng","42","612","0","45.350344","126.279982",NULL,NULL
"1410","Shuangyashan","42","612","0","46.670419","131.350008",NULL,NULL
"1411","Shulan","42","611","0","44.409110","126.948726",NULL,NULL
"1412","Shuozhou","42","608","0","39.300378","112.420001",NULL,NULL
"1413","Shuyang","42","614","0","34.129866","118.773360",NULL,NULL
"1414","Simao","42","629","0","22.780688","100.978167",NULL,NULL
"1415","Siping","42","611","0","43.170012","124.330023",NULL,NULL
"1416","Suihua","42","612","0","46.630421","126.979991",NULL,NULL
"1417","Suileng","42","612","0","47.245991","127.105978",NULL,NULL
"1418","Suining","42","627","0","30.533333","105.533333",NULL,NULL
"1419","Suzhou","42","616","124","33.636111","116.978889",NULL,NULL
"1420","Taian","42","619","124","36.199998","117.120076",NULL,NULL
"1421","Tailai","42","612","0","46.390358","123.409976",NULL,NULL
"1422","Taiyuan","42","608","0","37.875012","112.545058",NULL,NULL
"1423","Taizhou","42","614","124","32.490406","119.900009",NULL,NULL
"1424","Tangshan","42","607","0","39.624337","118.194377",NULL,NULL
"1425","Taonan","42","611","0","45.330423","122.780040",NULL,NULL
"1426","Tengchong","42","629","0","25.033316","98.466589",NULL,NULL
"1427","Tianjin","42","606","124","39.130026","117.200019",NULL,NULL
"1428","Tianshui","42","632","0","34.600019","105.919984",NULL,NULL
"1429","Tieli","42","612","0","46.950376","128.050003",NULL,NULL
"1430","Tieling","42","610","0","42.300375","123.819977",NULL,NULL
"1431","Tongchuan","42","631","0","35.079989","109.029975",NULL,NULL
"1432","Tonghua","42","611","0","41.679974","125.749988",NULL,NULL
"1433","Tongling","42","616","124","30.950448","117.780035",NULL,NULL
"1434","Tongren","42","628","0","27.680415","109.130021",NULL,NULL
"1435","Tumen","42","611","0","42.969999","129.820076",NULL,NULL
"1436","Wafangdian","42","610","0","39.625913","121.995954",NULL,NULL
"1437","Wangqing","42","611","0","43.324783","129.734344",NULL,NULL
"1438","Wanzhou","42","626","0","30.819991","108.400039",NULL,NULL
"1439","Weifang","42","619","124","36.720406","119.100110",NULL,NULL
"1440","Weihai","42","619","124","37.499971","122.099978",NULL,NULL
"1441","Weinan","42","631","0","34.500438","109.500076",NULL,NULL
"1442","Wenshan","42","629","0","23.372358","104.249698",NULL,NULL
"1443","Wenzhou","42","615","124","28.019981","120.650093",NULL,NULL
"1444","Wuhan","42","621","124","30.580031","114.270017",NULL,NULL
"1445","Wuhu","42","616","124","31.350424","118.369974",NULL,NULL
"1446","Wuwei","42","632","0","37.928007","102.641011",NULL,NULL
"1447","Wuxi","42","614","124","31.579996","120.299985",NULL,NULL
"1448","Wuzhou","42","624","0","23.480025","111.320016",NULL,NULL
"1449","Xiamen","42","617","124","24.449992","118.080017",NULL,NULL
"1450","Xian","42","631","0","34.275025","108.894996",NULL,NULL
"1451","Xiangfan","42","621","0","32.019995","112.130044",NULL,NULL
"1452","Xiangtai","42","607","124","37.049972","114.500029",NULL,NULL
"1453","Xiangtan","42","622","0","27.850431","112.900023",NULL,NULL
"1454","Xiantao","42","621","0","30.370406","113.440042",NULL,NULL
"1455","Xianyang","42","631","0","34.345556","108.714722",NULL,NULL
"1456","Xiaogan","42","621","0","30.920398","113.900014",NULL,NULL
"1457","Xichang","42","627","0","27.880015","102.299998",NULL,NULL
"1458","Xigaze","42","630","125","29.250009","88.883350",NULL,NULL
