{
"type": "FeatureCollection",
"crs": { "type": "name", "properties": { "name": "Trainings centers" } },
"features": [
{ "type": "Feature", "properties": { "Name": "Liberville", "Latitude": 9.4672676, "Longitude":0.4161976 }, "geometry": { "type": "Point", "coordinates": [ 9.4672676, 0.4161976 ] } },
{ "type": "Feature", "properties": { "Name": "Accra", "Latitude": -0.186964, "Longitude":5.6037168 }, "geometry": { "type": "Point", "coordinates": [ -0.186964, 5.6037168 ] } },
{ "type": "Feature", "properties": { "Name": "Marrakesh", "Latitude": -7.981084500000001, "Longitude":31.6294723 }, "geometry": { "type": "Point", "coordinates": [ -7.981084500000001, 31.6294723 ] } },
{ "type": "Feature", "properties": { "Name": "Windhoek", "Latitude": 17.0657549, "Longitude":-22.5608807 }, "geometry": { "type": "Point", "coordinates": [ 17.0657549, -22.5608807 ] } },
{ "type": "Feature", "properties": { "Name": "Eldoret", "Latitude": 35.2697802, "Longitude":0.5142774999999999 }, "geometry": { "type": "Point", "coordinates": [ 35.2697802, 0.5142774999999999 ] } },
{ "type": "Feature", "properties": { "Name": "Addis Ababa", "Latitude": 38.7577605, "Longitude":8.9806034 }, "geometry": { "type": "Point", "coordinates": [ 38.7577605, 8.9806034 ] } },
{ "type": "Feature", "properties": { "Name": "Nairobi", "Latitude": 36.8219462, "Longitude":-1.2920659 }, "geometry": { "type": "Point", "coordinates": [ 36.8219462, -1.2920659 ] } },
{ "type": "Feature", "properties": { "Name": "Kampala", "Latitude": 0.3475964, "Longitude":0.3475964 }, "geometry": { "type": "Point", "coordinates": [ 0.3475964, 0.3475964 ] } },
{ "type": "Feature", "properties": { "Name": "Beira", "Latitude": 34.8844867, "Longitude":-19.7963816 }, "geometry": { "type": "Point", "coordinates": [ 34.8844867, -19.7963816 ] } },
{ "type": "Feature", "properties": { "Name": "Maputo", "Latitude": 32.6051351, "Longitude":-25.891968 }, "geometry": { "type": "Point", "coordinates": [ 32.6051351, -25.891968 ] } },
{ "type": "Feature", "properties": { "Name": "Conakry", "Latitude": -13.5784012, "Longitude":9.641185499999999 }, "geometry": { "type": "Point", "coordinates": [ -13.5784012, 9.641185499999999 ] } },
{ "type": "Feature", "properties": { "Name": "Abidjan", "Latitude": -4.0082563, "Longitude":5.3599517 }, "geometry": { "type": "Point", "coordinates": [ -4.0082563, 5.3599517 ] } },
{ "type": "Feature", "properties": { "Name": "Kigali", "Latitude": 30.1044288, "Longitude":-1.9705786 }, "geometry": { "type": "Point", "coordinates": [ 30.1044288, -1.9705786 ] } },
{ "type": "Feature", "properties": { "Name": "Lilongwe", "Latitude": 33.7741195, "Longitude":-13.9626121 }, "geometry": { "type": "Point", "coordinates": [ 33.7741195, -13.9626121 ] } },
{ "type": "Feature", "properties": { "Name": "Abuja", "Latitude": 7.398574, "Longitude":9.0764785 }, "geometry": { "type": "Point", "coordinates": [ 7.398574, 9.0764785 ] } },
{ "type": "Feature", "properties": { "Name": "Dodoma", "Latitude": 35.7516069, "Longitude":-6.162959000000001 }, "geometry": { "type": "Point", "coordinates": [ 35.7516069, -6.162959000000001 ] } },
{ "type": "Feature", "properties": { "Name": "Rockeville", "Latitude": -77.1527578, "Longitude":39.0839973 }, "geometry": { "type": "Point", "coordinates": [ -77.1527578, 39.0839973 ] } },
{ "type": "Feature", "properties": { "Name": "Bishkek", "Latitude": 74.5697617, "Longitude":42.8746212 }, "geometry": { "type": "Point", "coordinates": [ 74.5697617, 42.8746212 ] } },
{ "type": "Feature", "properties": { "Name": "Izmir", "Latitude": 27.142826, "Longitude":38.423734 }, "geometry": { "type": "Point", "coordinates": [ 27.142826, 38.423734 ] } },
{ "type": "Feature", "properties": { "Name": "Obninsk", "Latitude": 55.1170375, "Longitude":55.1170375 }, "geometry": { "type": "Point", "coordinates": [ 55.1170375, 55.1170375 ] } },
{ "type": "Feature", "properties": { "Name": "Erbil", "Latitude": 44.0088697, "Longitude":36.2062933 }, "geometry": { "type": "Point", "coordinates": [ 44.0088697, 36.2062933 ] } },
{ "type": "Feature", "properties": { "Name": "Almaty", "Latitude": 76.8512485 , "Longitude":43.2220146 }, "geometry": { "type": "Point", "coordinates": [ 76.8512485 , 43.2220146 ] } },
{ "type": "Feature", "properties": { "Name": "Kuwait City", "Latitude": 47.9774052, "Longitude":29.375859 }, "geometry": { "type": "Point", "coordinates": [ 47.9774052, 29.375859 ] } },
{ "type": "Feature", "properties": { "Name": "St Petersburg", "Latitude": 30.3350986, "Longitude":59.9342802 }, "geometry": { "type": "Point", "coordinates": [ 30.3350986, 59.9342802 ] } },
{ "type": "Feature", "properties": { "Name": "Gaza City", "Latitude": 34.4668445, "Longitude":31.5016951 }, "geometry": { "type": "Point", "coordinates": [ 34.4668445, 31.5016951 ] } },
{ "type": "Feature", "properties": { "Name": "Ramallah", "Latitude": 35.2034184, "Longitude":31.9037641 }, "geometry": { "type": "Point", "coordinates": [ 35.2034184, 31.9037641 ] } },
{ "type": "Feature", "properties": { "Name": "Ankara", "Latitude": 32.8597419, "Longitude":39.9333635 }, "geometry": { "type": "Point", "coordinates": [ 32.8597419, 39.9333635 ] } },
{ "type": "Feature", "properties": { "Name": "Astana", "Latitude": 71.4703558, "Longitude":51.16052269999999 }, "geometry": { "type": "Point", "coordinates": [ 71.4703558, 51.16052269999999 ] } },
{ "type": "Feature", "properties": { "Name": "Khartoum", "Latitude": 32.5598994, "Longitude":15.5006544 }, "geometry": { "type": "Point", "coordinates": [ 32.5598994, 15.5006544 ] } },
{ "type": "Feature", "properties": { "Name": "Cairo", "Latitude": 30.044419, "Longitude":30.044419 }, "geometry": { "type": "Point", "coordinates": [ 30.044419, 30.044419 ] } },
{ "type": "Feature", "properties": { "Name": "Panama City", "Latitude": -85.6602058, "Longitude":30.1588129 }, "geometry": { "type": "Point", "coordinates": [ -85.6602058, 30.1588129 ] } },
{ "type": "Feature", "properties": { "Name": "San Salvador", "Latitude": -89.2181911, "Longitude":13.6929403 }, "geometry": { "type": "Point", "coordinates": [ -89.2181911, 13.6929403 ] } },
{ "type": "Feature", "properties": { "Name": "Santiago", "Latitude": -70.6692655, "Longitude":-33.4488897 }, "geometry": { "type": "Point", "coordinates": [ -70.6692655, -33.4488897 ] } },
{ "type": "Feature", "properties": { "Name": "Ottawa", "Latitude": -75.69719309999999, "Longitude":45.4215296 }, "geometry": { "type": "Point", "coordinates": [ -75.69719309999999, 45.4215296 ] } },
{ "type": "Feature", "properties": { "Name": "Colombo", "Latitude": 79.861243, "Longitude":6.9270786 }, "geometry": { "type": "Point", "coordinates": [ 79.861243, 6.9270786 ] } },
{ "type": "Feature", "properties": { "Name": "Mumbai", "Latitude": 72.8776559 , "Longitude":19.0759837 }, "geometry": { "type": "Point", "coordinates": [ 72.8776559 , 19.0759837 ] } },
{ "type": "Feature", "properties": { "Name": "Jakarta", "Latitude": 106.822745, "Longitude":-6.1744651 }, "geometry": { "type": "Point", "coordinates": [ 106.822745, -6.1744651 ] } },
{ "type": "Feature", "properties": { "Name": "Kuala Lumpur", "Latitude": 101.686855, "Longitude":3.139003 }, "geometry": { "type": "Point", "coordinates": [ 101.686855, 3.139003 ] } },
{ "type": "Feature", "properties": { "Name": "Phnom Penh", "Latitude": 104.8921668, "Longitude":11.5448729 }, "geometry": { "type": "Point", "coordinates": [ 104.8921668, 11.5448729 ] } },
{ "type": "Feature", "properties": { "Name": "Bangkok", "Latitude": 100.5017651, "Longitude":13.7563309 }, "geometry": { "type": "Point", "coordinates": [ 100.5017651, 13.7563309 ] } },
{ "type": "Feature", "properties": { "Name": "Chennai", "Latitude": 80.2707184, "Longitude":13.0826802 }, "geometry": { "type": "Point", "coordinates": [ 80.2707184, 13.0826802 ] } },
{ "type": "Feature", "properties": { "Name": "Shanghai", "Latitude":  121.4737021, "Longitude":31.2303904 }, "geometry": { "type": "Point", "coordinates": [  121.4737021, 31.2303904 ] } },
{ "type": "Feature", "properties": { "Name": "Brisbane", "Latitude": 153.0251235, "Longitude":-27.4697707 }, "geometry": { "type": "Point", "coordinates": [ 153.0251235, -27.4697707 ] } }
]
}
